,Block Lot,Planning Neighborhood,Best Stat,Best Date,FirstFiled,Units,Planning Project Description,DBI Project Description,LANDUSE,Address,Latitude,Longitude
0,0185029,Northeast,BP Filed,2012-10-31,2012-10-31,9.0,,"CONVERT WAREHOUSE BLDG TO 9 UNIT RESID, 21 OFF-STREET PARKING SPACE, RETAINS EAST, SOUTH & WEST WALL",Resident,1469 Pacific Av,37.795181,-122.419434
1,0192014,Northeast,PL Approved,2012-07-12,2008-06-26,0.0,"Hospital Replacement and expansion, adding 68,010 gsf total, building new seven-story acute care hospital, moving medical office building uses to existing five-story hospital, and demolishing existing Chinese Hospital and Chinese Hospital Garage (MOB and ",,CIE,835-845 Jackson St,37.795639,-122.408854
2,3507042,Downtown,PL FILED,2009-04-08,2009-04-08,165.0,"THC/Citizens Housing (MOH) proposal for 165-du 100% affordable housing project, 15-story, w/ 18 parking spaces and 3,640-gsf retail at ground level.  Related to Addendum 2003.0262E EIR.",,Mixres,1400 Mission St,37.775274,-122.415971
3,0221020,Northeast,CONSTRUCTION,2013-04-26,2009-05-07,3.0,Two-floor vertical addition of a residential unit and 2 parking spaces.,"ADDITION OF 2 NEW FLOORS, 2 ONSITE PARKING SPACES, CONVERSION OF RESIDENTIAL DUPLEX INTO RESIDENTIAL",Resident,34 Pleasant St,37.793047,-122.413365
4,0331001A,Downtown,PL Filed,2013-02-28,2013-02-28,7.0,"Interior structural improvements and addition of 4 stories to existing 3-story building. Revised application rec'd 7/25/11: reduced addition to 3 stories, total 77.5' in ht, 14 res units (11,720 sf), and 8,685 sf retail. Revised drawings rec'd 3/7/13: 18 ",,Mixres,231 Ellis St,37.785117,-122.410011
5,3722027,Downtown,PL Approved,2010-07-13,2009-04-09,0.0,"Expansion of SFMOMA to SE with 40,000-sf gallery wing at Natoma Street, acquisition and replacement of Heald College building on Howard Street with 62,000-sf new construction for back-of-house and admin functions, vacation of portion of Hunt Alley, and ac",,CIE,151 Third St,37.785549,-122.400939
6,1533017,Richmond,BP Filed,2009-05-28,2009-05-28,2.0,,"THREE STORY HORIZONTAL ADDITION AT REAR OF BUILDING, AND CHANGE FROM SINGLE FAMILY DWELLING TO TWO F",Resident,473 11th Av,37.779432,-122.469716
7,0201012,Northeast,PL Approved,2012-06-19,2007-12-04,170.0,The proposed project would include the temporary removal of the existing Golden Gateway Tennis and Swim Club facility and the new construction of two mixed use buildings and outdoor health club facilities. The new buildings would include 170 residential u,,Mixres,8 Washington Street,37.796691,-122.395756
8,0025017,Northeast,BP REINSTATED,2013-04-24,2006-11-07,1.0,"Demolition of an existing 558-sq. ft. one-story warehouse and construction of a new four-unit residential building over 5,589 sq. ft. of groundfloor retail. The new building would be four stories, approximately 40 feet in height, totaling approximately 12","TO ERECT 3 STORIES, 1 UNIT RESIDENTIAL / COMMERCIAL BUILDING.",Mixres,721 Beach St,37.806808,-122.420554
9,0028014,Northeast,PL Approved,2011-06-08,2009-07-29,20.0,"Remove office, new construction 20-unit residential condominium with approximately 6,500 sf retail and 20 parking spaces at ground floor. Variance required because no commercial parking is provided.",,Mixres,1255- 1275 Columbus Av,37.80569,-122.418199
10,0041039,Northeast,BP Filed,2007-12-17,2007-12-17,2.0,"Variance from parking requirements to allow the addition of two stories with four dwelling units to an existing one-story commercial building, with no parking to be provided. ",Remodel (E) restaurant #1 at ground floor and  convert (E) restaurant #2 space to two car garage. Ad,Mixres,377 Bay St,37.805557,-122.413093
11,0133012,Northeast,CONSTRUCTION,2012-12-13,2007-12-28,3.0,RELOCATION AND UPGRADE OF EGRESS STAIRS IN REAR YARD.  UPGRADE HOUSE KEEPING UNIT INTO 3RD DWELLING UNIT,"Seismic reinforcement front and rear, partial relocation of (e) interior stairway. Construction of (",Resident,414 Vallejo St,37.799224,-122.404869
12,0317005,Downtown,BP Filed,2008-08-05,2008-08-05,9.0,Conversion of nine offices into nine residential units.  One on-site BMR unit will be provided on-site.  All work will occur within the existing building.  Conditional Use Authorization required for reduction of off-street parking requirements in NOMARSUD,CONVERTING OF NINE OFFICES TO NINE RESIDENTIAL UNITS,Resident,436 Ofarrell St,37.786031,-122.411993
13,0318020,Downtown,PL FILED,2008-08-15,2008-08-15,46.0,"Demolition of a three-story, 19,900-sf office building and construction of a 14- story, 40-unit residential building with 5,945 sf of retail and 5,945 sf of office use.  No off-street parking is proposed.  ""V"" for off-street parking ""C"" for height over 40",,Mixres,651 Geary St,37.786515,-122.413931
14,0491020,Marina,BP Filed,2008-01-17,2008-01-17,1.0,,Interior remodel of (E) second floor. Convert (E) office use to residential (1 unit).,Resident,3342 Steiner St,37.800086,-122.4376
15,0595013,Northeast,CONSTRUCTION,2013-04-10,2007-07-25,38.0,"Demo auto repair buildings and construct 65,000-sf, 50-unit, residential condominium building, with 50 stacker parking spaces at basement, with common lobby entrance and roof deck.",ERECT 6 STORY 38 UNIT RESIDENTIAL/COMMERCIAL/CONDOMINIUM BUILDING.,Resident,1645-1661 Pacific Av,37.794805,-122.422317
16,0596024,Northeast,CONSTRUCTION,2013-04-03,2007-11-14,39.0,"The proposed project would demolish the three existing ""L""-shaped buildings and a 15-space surface parking lot and construct a new 43 unit residential building with 2,900 sq. ft. of groundfloor retail, and 45 parking spaces (29 car lifts). The proposed bu",CONSTRUCTION OF TYPE III SIX-STORY THIRTY-EIGHT DEWLLING UNITS/RETAIL SPACE.,Mixres,1946 Polk St,37.794586,-122.421312
17,0069011,Northeast,CONSTRUCTION,2013-01-23,2008-09-26,2.0,"Construction of a new 4-story, 2-unit residential building.",TO ERECT A NEW FOUR STORY TWO FAMILY DWELLING UNIT.,Resident,2626 Larkin St,37.802094,-122.421117
18,0074001,Northeast,BP ISSUED,2012-03-29,2009-09-01,0.0,"Library Bond project combined with Park Plan.  Project includes new library on the lot at the corner of Columbus & Lombard Streets (0074/001), demolition of existing branch library, and plan for reorganization and improvements to Joe DiMaggio Playground (",ERECT 2-STORY PUBLIC BRANCH LIBRARY,CIE,701 Lombard St,37.802763,-122.413076
19,0077004,Northeast,BP Filed,2008-12-31,2008-12-31,3.0,,CONVERT ONE (1) UNIT TO THREE (3) UNIT CONDOS & ADD TWO (2) NEW STORIES. REMODEL (E) BLDG INCLUDING ,Resident,30 Edith St,37.802986,-122.408231
20,0101004,Northeast,BP APPROVED,2012-11-02,2008-12-15,18.0,"The project would renovate a gutted theater into 3,500 square feet of commercial space and 17 residential condominiums with 20 parking spaces.",PER SF PLANNING MOTION 17797 PERMITTING THE CONVERSION OF EXISTING THEATER TO MIX USE BUILDING WITH ,Mixres,1741 Powell St,37.800478,-122.411045
21,0119025,Northeast,BP ISSUED,2011-07-13,2007-09-19,3.0,Add dwelling unit on ground floor with no expansion of the building,SITE PERMIT: ADD 3RD UNIT AT GROUND FLOOR ~450 SF. 3 PARKING SPACES PROVIDED IN GARAGE. MECH & PLUMB,Resident,1812 Taylor St,37.799113,-122.413802
22,0133006A,Northeast,PL Approved,2008-09-26,2007-02-23,2.0,"The proposal is construction of a new three-story single-family house behind an existing one-story single family 850-square-foot house at 1131 Montgomery Street.  THe original foundation of the existing house would be replaced, restructured, excavated and",,Resident,1131 Montgomery St,37.799467,-122.40427
23,0531004,Marina,PL Approved,2009-10-22,2009-03-17,2.0,Demolition of existing single-family dwelling and construction of new 2-unit residence.,,Resident,2919 Laguna St,37.797923,-122.430755
24,0165021,Northeast,BP ISSUED,2012-08-09,2010-06-17,75.0,"Broadway/Sansome Family Housing: 100% affordable 50-du residential mid-rise bldg with 5,000-sf retail on former Fwy parcel, 50-70' deep lot entire south side of Broadway between Sansome and Battery Streets, replacing surface parking and portion Stevens Al",ERECT A FIVE STORY RESIDENTIAL & COMMERCIAL BUILDING,Mixres,235 Broadway,37.79841,-122.401464
25,0165022,Northeast,BP Filed,2008-12-01,2008-12-01,0.0,"Two story penthouse addition to three-story office building, for office use, new three-story bldg of 9,000-gsf office over retail; 24,870-sf additions to historic Musto Bldg.","ALTERNATION TO EXISTING BUILD, NEW 2 STORY VERTICAL ADDITION ON THE EXISTING BUILD, 3 STORY HORIZONT",MIPS,717 Battery St,37.797868,-122.401084
26,0238002,Downtown,PL Filed,2012-09-12,2012-09-12,0.0,Vertical addition of 4 floors of office to an existing 8 story office building.  The existing rooftop penthouse will be removed.  Existing basement parking and ground-floor retail uses would remain.  Publicly accessible open space would be provided at a r,,MIPS,300 California St,37.79333,-122.400114
27,0250001,Northeast,PL Filed,2008-10-20,2008-06-13,95.0,"Demolish Cala Foods and loading dock and construct 6-8-story, 95-unit residential mixed-use building, 31,000-sf retail, and 105 parking, 246,500-sf total. LEED Gold.",,Mixres,1401 California St,37.790856,-122.417554
28,0258033,Downtown,PL APPROVED,2001-03-15,2000-11-29,0.0,"On a vacant 13,800-sq.-ft. site, construction of a five-story, 61-ft. high office building w/ 11,220 sq. ft. of ground floor retail, 45,610 sq. ft. of office space and one subsurface level of parking w/ 39 spaces, and under the basement parking level woul",,MIPS,500 Pine St,37.791701,-122.404641
29,0279011,Downtown,PL Approved,2009-05-28,2009-04-30,35.0,"The project site is current vacant and used as a 20-space parking lot. The proposed project would construct 35 dwelling units and 1,339 sq. ft. of ground floor commercial space, and 13 parking spaces. The new structure would be approximately 51,950 sq. ft",,Mixres,1080 Sutter St,37.788156,-122.418078
30,0281003,Downtown,PL Filed,2008-08-24,2007-05-15,27.0,The proposal is to construct a mixed-use building with no parking on an existing surface parking lot.  ,,Mixres,832 Sutter St,37.788653,-122.414151
31,0283004A,Downtown,BP Filed,2013-01-23,2005-07-14,65.0,"The project is the alteration of and new addition to the Sheehan Hotel through change of use of the hotel for residential flats and ground floor retail, and a rear addition of a new 12-story building, replacing an existing 2 to 4 story structure.  The tot",TO DUCUMENT CHANGE OF USE FROM HOTEL TO GROUP HOUSING.,Mixres,620 Sutter St,37.789089,-122.41069
32,0287013,Downtown,PL Approved,2011-10-06,2011-06-01,45.0,"Extension of entitlements for previously approved project (Case No. 2004.1245EKVX) to demolish 272 and 292 Sutter Street containing 35,600-gsf retail and construct a 12-story, 113,526-gsf residential mixed-use structure in K-M-M-S Conservation District wi",,Mixres,300 Grant Ave.,37.789703,-122.405341
33,0297009,Downtown,CONSTRUCTION,2013-01-03,2009-12-24,17.0,,"Revision to previous approved permits, 2008/0429/0902, 2007/1224/1222, 2005/0824/1157, 2004/0917/449",Resident,693 Sutter St,37.788708,-122.411594
34,0303014,Downtown,BP ISSUED,2012-07-20,2007-12-31,50.0,9  new construction,Vacant ground floor space to be converted to 4 dwelling units on existin builidng. Work to include remodel at 2nd floor manager's apt to raise floor for headroom below. Convert tourist hotel to sro residental hotel.,Resident,875 Post St,37.787177,-122.416104
35,0550004,Northeast,BP Filed,2007-07-02,2007-07-02,2.0,,ADD 1 STORY TO MAKE 1 ADDITIONAL RESIDENTIAL UNIT. ADD STRUCUTRAL BRACING ON GROUND FLOOR RESTAURANT,Resident,2237 Polk St,37.797416,-122.422126
36,0323015,Downtown,CONSTRUCTION,2012-06-01,2008-04-02,151.0,Variances for off-street parking for zero spaces where 21 parking spaces would otherwise be required; and variance for open space for no usable open space where approx. 975 sq. ft. would otherwise be required.  Project is to convert 82 tourist hotel units,,Resident,472 Ellis St,37.784875,-122.413931
37,0327011,Downtown,PL Approved,2010-03-25,2009-12-02,0.0,"Extension of entitlements (Case Nos. 200.383CX and 2004.1047CX) for demolition of an existing surface parking lot and construction of an 11-story, 156 room hotel with ground floor retail.",,Visitor,72 Ellis St,37.785691,-122.407384
38,0331010,Downtown,PL Approved,2009-03-26,2008-07-30,170.0,"100% Affordable housing, approx 170-u over 15,000 retail. TNDC.",,Mixres,168 Eddy St,37.784369,-122.410403
39,0336017,Downtown,PL Approved,2008-04-10,2006-10-16,65.0,Partial interior demo of existing 2-story office/retail structure to insert an additional floor level & construct an 1-story vertial addition for a total of 4-stories to house 65 dwelling units.,,Resident,245 Hyde St,37.78298,-122.415949
40,0339006,Downtown,CONSTRUCTION,2011-02-14,2005-03-30,9.0,"convert vacant commercial building (retail / bathhouse) to up to 28 dwelling units (needs ""EE"")","CONVERSION OF (E) 3 STORY OVER BASEMENT BLDG. TO A 5 STORY OVER BASEMENT BLDG. WITH G/F OFFICE PSACE, 9 RESIDENTIAL UNITS AT UPPER FLOORS AND PARKING AT BASEMENT. THE HISTORICAL FACADE AT TURK STREET TO BE RESTORED WITH NEW G/F STORE FRONT AND GARAGE DOOR",Mixres,130 Turk St,37.78327,-122.41136
41,0343014,Downtown,BP REINSTATED,2009-03-10,2005-03-16,32.0,"Build 32 dwellings, ground floor commercial space and 8 off-street parking spaces on site authorized as vacant, but used as parking lot.","ERECT 4 STORY RESIDENTIAL, RETAIL & PARKING BUILDING",Mixres,181 Turk St,37.78292,-122.411966
42,0349001,Downtown,CONSTRUCTION,2013-04-17,2010-12-15,90.0,"Ten story mixed-use affordable housing project; Request for a Conditional Use authorization for a mixed-use building exceeding 40 feet in an R District, for future philanthropic uses above the ground floor, and exceptions to parking, rear yard, upper stor","ERECT 10 STORIES, 90 DWELLING UNITS, 1 BASEMENT, DINING, SOCIAL SERVICES, AFFORDABLE APARTMENTS BUIL",Resident,101 Golden Gate Av,37.781936,-122.412374
43,0500015,Northeast,CONSTRUCTION,2013-01-15,2009-11-17,4.0,"Vacant lot. New construction of 4-unit, 5-story residential building with basement.","ERECT 5 STORIES, 4 UNITS, TYPE 3, RESIDENTIAL BUILDING.",Resident,1268-1270 Lombard St,37.801744,-122.42234
44,0503015,Marina,CONSTRUCTION,2009-03-11,2005-01-04,2.0,,CREATE NEW 2-STORY RESIDENCE ABOVE EXISTING.REMODEL EXIST RES & GARAGE.NEW REAR ADDITION&2-STORY....,Resident,2842 Franklin St,37.800645,-122.425978
45,0510029,Marina,BP REINSTATED,2012-08-27,2007-05-21,3.0,,"TO COMPLY WITH NOV#200665975 TO ESTABLISH LEGALITY OF UNITS # OF (3) TOTAL, TO ESTABLISH LEGALITY OF",Resident,2157 Lombard St,37.7996,-122.436934
46,0527002,Marina,BP ISSUED,2013-03-01,2009-01-12,27.0,Demolish gas station and remove USTs; no new construction yet proposed,"TO ERECT 6 STORIES, 27 UNITS RESIDENTIAL / RETAIL / GARAGE BUILDING.",Resident,2559 Van Ness Av,37.799075,-122.424255
47,0528008,Marina,BP Filed,2007-06-25,2007-06-19,7.0,Demo of existing; construction of new 7 unit four-story building.," ERECT: 1 4 STORY, 7 UNIT TYPE 5 RESIDENTIAL STRUCTURE.",Resident,1662-1664 Union St.,37.798352,-122.426636
48,0557019,Marina,CONSTRUCTION,2013-01-15,2007-02-13,1.0,"To construct a 6-story, single-family house o a vacant lot in an RH-2 district.",ERECT:1  5-story single family dwelling,Resident,2151 Green St,37.79614,-122.434441
49,0570010,Marina,PL Approved,2009-03-12,2008-07-22,34.0,CU for 34 dwelling unit building,,Resident,1622 Broadway,37.795806,-122.423903
50,0574011,Northeast,PL Approved,2008-07-28,2009-04-22,0.0,Addition and alteration of historic fire house into a retail and private club use of approx. 8681 sqft with no parking.,,Retail/Ent,1648 Pacific Av,37.795065,-122.422421
51,0619009,Northeast,PL Approved,2011-10-20,2011-02-01,62.0,Conditional Use for PUD,,Mixres,1800 Van Ness Ave.,37.792289,-122.422612
52,0619012,Northeast,BP ISSUED,2008-11-17,2005-12-20,35.0,"The proposed project is demolition of a gas station on a 8,960-gsf site at the corner of Van Ness Avenue and Washington Street and construction of a 8-story 58,065-gsf residential mixed-use structure with 35 dwelling units, and 35 parking spaces in two su","TO ERECT 7 STORIES, 35 DWELLING UNITS OF RESIDENTIAL & RETAIL STORE.",Mixres,1860 Van Ness Av,37.792726,-122.422633
53,0647007,Western Addition,PL FILED,2008-11-05,2000-11-27,250.0,"Demolition of five buildings and construction of a mixed-use project with 250 dwelling units, 298 off-street parking spaces, 12,000 GSF office use, in a building ranging from 65-134 feet in height, 14 stories tall.  ",,Mixres,1634 Pine St,37.789593,-122.42296
54,0654001F,Japantown,BP Filed,2007-08-23,2007-08-23,0.0,,"Site Permit. One story vertical addition over existing stucture, and one story horizontal addition to the rear for 2 retail spaces on the 1st floor, and 2 new office spaces on (n) 2nd floor.",Mixed,2429 California St,37.788711,-122.434348
55,0660007,Japantown,CONSTRUCTION,2010-11-04,2006-02-24,2.0,Demolition of two-family dwelling building and construction of new two-unit structure.  ,"TO ERECT 3 STORIES, 2 UNITS RESIDENTIAL BUILDING.",Resident,19 Wilmot St,37.787514,-122.432282
56,0667016,Northeast,PL APPROVED,2012-10-22,2012-11-21,113.0,"Demolish three existing buildings and construct two buildings, a 14-story building and a six-story building containing a total of 113 dwelling units, 113 parking spaces, and 10,000 sq. ft. of ground floor commercial. The new building would be approximatel",,Mixres,1545 Pine St,37.789402,-122.421219
57,0671006,Western Addition,BP REINSTATED,2009-06-25,2008-09-25,69.0,,"ERECT A 13 STORIES 69 RESIDENTIAL UNIT & COMMERCIAL BUILDING WITH PARKING;
DEMOLISH A 2 STORY AUTO SALES AND SERVICE GARAGE",Resident,1450 Franklin St,37.788011,-122.423355
58,0691008,Downtown,CONSTRUCTION,2013-03-07,2006-02-28,107.0,"Demolition of an existing movie theater and construction of 13-story mixed-use building with 120 dwelling units, appx. 180 off-street parking spaces, and appx. 16,500 gsf of ground floor commercial use.","TO ERECT 13 STORIES, 107 CONDOS AND GROUND FLOOR COMMERICIAL WITH 4 BASEMENTS.",Mixres,1285 Sutter St,37.787456,-122.42135
59,1152017,Western Addition,CONSTRUCTION,2013-04-10,2007-11-30,3.0,,"TO ERECT 4 STORIES, 3 UNITS APARTMENTS & GARAGE.",Resident,1870 Golden Gate Av,37.778509,-122.44135
60,0711031,Western Addition,PL Approved,2009-08-06,2009-03-26,0.0,"New theater within courtyard of Sacred Heart Cathedral Preparatory School, within the St. Mary's Cathedral complex, 11,513-sf of new construction, interior alterations.",,CIE,1100 Ellis St,37.783489,-122.424658
61,0720038,Western Addition,PL APPROVED,2001-09-13,2000-11-21,240.0,"05/02/2001 5 lot merger & resubdivision
09/21/2000 Shadow Study  Prop. K & 11/21/00 CU and Z
1) Relocate approximately 5,000 square feet of office/social services/meeting space into an adjacent building, displacing ten residential units; 2) Demolish an ex",,Resident,1101 Ofarrell St,37.784411,-122.423057
62,0757025,Western Addition,BP Filed,2012-07-10,2008-12-11,98.0,"New construction of 5-story, 145-foot tall housing tower(s) with 98 affordable senior rental units",ERECT TYPE 1 & TYPE V NEW BUILDING,Resident,1100 Golden Gate Av,37.780045,-122.428767
63,0794015,Market Octavia,PL Approved,2010-05-13,2008-08-29,136.0,"Demolition of existing 2-story industrial and office bldgs. of 19,620 sf with 70 parking spaces.  Construct residential bldg. of 143 units with 21,945 sf of commercial space on the ground floor, and 165 parking spaces.  22 parking spaces will be at the gr",,Mixres,746 Laguna St,37.777818,-122.426447
64,0807022,Market Octavia,CONSTRUCTION,2012-12-18,2006-10-04,1.0,"Construction of a new approx. 5,555 sq. ft., 4-story-over-basement, 40' tall, 3-unit residential building on vacant lot, w/ three off-street parking spaces.","AT REAR, ERECT 4 STORY SINGLE FAMILY DWELLING.",Resident,543 Grove St,37.777394,-122.42551
65,0808036,Market Octavia,CONSTRUCTION,2013-04-24,2011-01-28,63.0,"CU/PUD Amendment to previous PUD approval (Case No. 2007.0487C). Project proposes 63 dwelling units, 5,200 sf of retail uses, and 37 parking spaces. Architecture has been revised from previous approval. PUD Modifications requested for rear yard, usable op",ERECT 5 STORIES WITH 63 DWELLING UNITS,Mixres,401 Grove Street,37.777677,-122.423316
66,0813007,Market Octavia,PL Approved,2009-05-28,2005-10-19,230.0,"Fox Plaza currently contains two buildings: a 29-story mixed-use building and a two-story commercial building.  The proposal would demolish the existing two-story, 19,000 structure located on the NE corner of the lot and construct a new building which wou",,Mixres,1390 Market St,37.776791,-122.417444
67,0818020,Market Octavia,BP ISSUED,2012-08-30,2007-03-12,2.0,,ERECT 4 STORIES 2 DWELLING UNITS BLDG.,Resident,476 Linden St,37.776202,-122.425742
68,0828012,Western Addition,PL Approved,2008-02-02,2007-07-03,0.0,"PUD for Demolition of two structures (rectory and convent), new construction for Megan Furth Academy (K-8) expansion.",,CIE,735 Fell St,37.7749,-122.429934
69,0832025,Market Octavia,BP Filed,2008-10-01,2008-10-01,16.0,,TO ERECT 16 DWELLING UNIT WITH 5 STORIES NEW BLDG(CONDO AND RETAIL),Resident,300 Octavia St,37.774903,-122.423957
70,0832026,Market Octavia,BP Filed,2008-10-01,2008-04-11,16.0,Shadow Analysis,TO ERECT 16 DWELLING UNITS WITH 5 STORIES NEW BLDG(CONDO AND RETAIL),Mixres,360 Octavia St,37.77545,-122.424008
71,0834017,Market Octavia,BP Filed,2005-06-21,2005-06-21,2.0,"Add one floor of office to previously approved project, Variance for public open space","TO ERECT 5 STORIES, 2 DWELLING MIXED USED TYPE 1 BUILDING.",Mixres,149 Fell St,37.776139,-122.420277
72,0837003,Market Octavia,BP Filed,2009-12-03,2009-12-03,35.0,"Construct a new 8-story, 35-unit mixed-use building with ground-floor commercial.  See 2008.1328",CONSTRUCTION OF 8-STORY 35 DWELLING UNITS W/RETAIL & PARKING.,Mixres,1 Franklin St,37.774342,-122.420842
73,3580035,Central,PL Approved,2009-11-24,2009-03-19,5.0,Construction of a new 4-story 3/4 unit residential structure in front of existing structure.,,Resident,265 Dorland St,37.761953,-122.42981
74,0839025,Market Octavia,CONSTRUCTION,2013-01-31,2008-06-30,16.0,"Insert 4 new dwelling units in partial basement of existing residential buildings. Lot has two buildings, 335-341 Oak and 230 Lily. 230 Lily is a contributory building to the California register. Requires CU for density and V for open space",230 LILY STREET-CONVERT (E) STORAGE AT 1ST FLOOR INTO 2 NEW DWELLING UNITS,Resident,335 Oak St,37.774648,-122.424848
75,0854001,Market Octavia,CONSTRUCTION,2013-04-26,2011-05-16,24.0,"The project would demolish an existing commercial building and construct a new nine-story structure approximately 84 fee tall with ground floor restaurant (3,700 sq. ft.) and below ground parking for 8 spaces.  Total gross building area is 41,435 square f","TO ERET 5 STORIES, 24 UNITS RESIDENTIAL, RETAIL, STORAGE BUILDING.",Mixres,1600 Market St,37.774013,-122.420801
76,0855011,Market Octavia,BP ISSUED,2013-03-19,2008-05-14,49.0,"new construction of  mixed-use building containing +/- 49 dwelling units, +/-3,500 sq. ft. of ground-floor commercial space & a parking garage containing 37 residential-serving spaces & 2 commercial-serving spaces (39 total) -- ""C' for a lot in excess of ","ERECT 49 UNITS, 8 STORIES, PARKING, RESTAURANT, TYPE 1 NEW BUILDING.",Mixres,4 Octavia St,37.772172,-122.423383
77,0857001,Market Octavia,PL Approved,2008-01-17,2006-10-31,133.0,"Mixed-use project which would include construction of seven new buildings and the adaptive re-use of two existing buildings for 491 dwelling units, 421 off-street parking spaces, 3,500 GSF of retail use, 12,000 GSF for a dental clinic, and 12,590 GSF for ",,Mixres,55 Laguna Street,37.771351,-122.425394
78,0872005,Market Octavia,CONSTRUCTION,2013-04-25,2007-05-29,115.0,"Demolition/removal of gas station.  Construction of 115 condominium units (130,000 square feet), 9,000 square feet of retail, 109 parking spaces.  The building would be approximately 85 feet tall and eight stories in height.
1/11/07 Demolition/removal of ","TO ERECT 9 STORIES, 114 RESIDENTIAL UNITS WITH RETAIL & PARKING BUILDING.",Mixres,1960-1998 Market St,37.770026,-122.425974
79,1386015,Richmond,CONSTRUCTION,2012-12-20,2006-05-09,3.0,,"HORIZONTAL & VERTICAL ADDITION TO (E) BUILDING, ADD ONE MORE UNIT - FROM 2 UNITS TO 3 UNITS.",Resident,279 26th Av,37.784324,-122.486284
80,1028003,Western Addition,PL Approved,2008-01-17,2007-01-30,12.0,"The proposed project would demolish the existing two-story building on the site and construct a four-story consisting of 12 residential units, 4,924 sq. ft. of retail, 2,281 sq. ft. of office, and 18 parking spaces. The building would be approximately 40 ",,Mixres,2829 California Street,37.787871,-122.44096
81,3557062,Market Octavia,BP Filed,2008-08-19,2003-11-18,13.0,"The proposed project (revised per Dept) involves renovation of the existing 3-story fire-damaged rectory structure and construction of a 4-story 19,083 gsf residential building containing 13 dwelling units and 16 off-street parking spaces. M-O Plan Area. ",ERECT A FOUR STORY THIRTEEN UNIT RESIDENTIAL BLDG,Resident,200 Dolores St,37.766192,-122.426658
82,3560001,Market Octavia,BP ISSUED,2012-03-14,2008-10-02,22.0,"The proposed project would demolish the existing 3,000 sq. ft. restaurant and construct a new six story over garage builidng consisting of 20 residential units, 5,000 sq. ft. of retail, and 15 parking spaces. The building would be approximately 30,000 sq.",TO DEMOLISH 1 STORY RESTAURANT.,Mixres,2210 Market St,37.765723,-122.431436
83,3575063,Mission,BP Filed,2010-03-24,2005-12-15,3.0,"Project would require a rezoning from RH-2 to NC-3. Proposed project construct a three-story addition to the existing one building on the project site. The new building would be four-story, 50-feet in height consisting of 1,996 sq. ft. ground floor restau","SITE PERMIT-REMODEL OF (E) 1 STORY STRUCTURE. ALTERED BUILDING WILL CONTAIN 4 STORIES, CONSISTING OF",Mixres,3249 17th St,37.763376,-122.418102
84,3583082,Central,BP ISSUED,2009-07-29,2008-05-19,2.0,"Addition to existing 2-story, 1,260 sqft single-family residence over commercial. Proposed addition to include 4-story, 5,000 sqft building with 2 residential units over commercial.",REMODEL & VERTICAL/HORIZONTAL ADDITION TO TRANSFORM (E) 2-STORY TO 3-STORY; (ADD ONE UNIT) 2-UNIT RE,Resident,4035 18th St,37.760836,-122.433493
85,3584007,Central,BP REINSTATED,2013-04-22,2005-05-03,2.0,"To demolish the existing structures on the lot and construct a new 4-story, 2-unit residential building in an RH-3 district.",ERECT  4 STORIES OF 2 SWELLING UNITS.,Resident,530 Sanchez St,37.760651,-122.430683
86,3591024,Mission,PL Filed,2012-08-14,2005-08-18,,"Demolition of an existing gas station and construction of a five-story mixed-use building with 22 dwelling units, 7,795 GSF of ground floor retail use, and 49 off street parking spaces.   ",,Vacant,793 South Van Ness Av,37.760617,-122.416911
87,3594009,Mission,CONSTRUCTION,2012-05-10,2007-01-29,4.0,CONVERT EXISTING 3-STORY 2-UNIT RESIDENTIAL BUILDING W/ 2 OFF-STREET PARKING SPACES TO 4-STORY 4-UNIT RESIDENTIAL BUILDING W/ 4 OFF-STREET PARKING SPACES.,VERTICAL AND HORIZONTAL EXTENSION TO CONVERT A 3 STORY 2 UNIT RESIDENTIAL BUILDING INTO A 4 STORY 4 UNTS CONDEMINIUM BLDG WITH INTERNAL REMODELING,Resident,2374 Folsom St,37.759361,-122.414891
88,3594016,Mission,BP APPROVED,2010-10-21,2005-08-23,6.0,"Conversion of an automotive garage to six 3-BR, 2-BA units on two floors above garage.",TO ERECT 4 STORY 6 DWELLING UNITS,Resident,3360 20th St,37.758952,-122.416099
89,3596113,Mission,PL Approved,2011-05-26,2005-08-11,18.0,"The proposed project is demolition of a 1,800-gsf gas station and construction of a 5-story 50,141-gsf mixed use residential structure with 18 dwelling units, 22 parking spaces, and two ground-floor retail units at the corner of Valencia and 20th Streets ",,Mixres,899 Valencia St,37.758616,-122.421167
90,4624009,Other S Bayshore,BP Filed,2013-02-07,2008-03-27,54.0,"The proposed project would demolish the 267 affordable housing units in 50 buildings and construct about 668 affordable units, 6,400 sq. ft. of retail, 739 parking spaces in 66 buildings. Buildings would range from two to five-stories 20 to 50 feet in hei","ADD COMPLETE FIRE ALARM SYSTEM FOR NEW BLDG (MULTI UNIT RESIDENTIAL), 72 HORN/STROBES, 17 STROBES, 1",Mixres,227 West Point Road,37.73508,-122.379131
91,4645018,India Basin,BP APPROVED,2008-11-03,2004-02-26,4.0,"Construct a vertical addition to accommodate three DUs, convert ground floor to a three-car garage, and change ground floor use from business to retail in an NC-2 (Small-Scale Neighborhood Commercial) District and a 40-X Height and Bulk District.","ADD 2 NEW FLOORS TO (E) STRUCTURE.RECONFIGURE (E)SPACE W/NEW ADDED SPACE TO CREATE 1 COMM'L SPACE,",Resident,860 Innes Av,37.731973,-122.375385
92,5336047,Other S Bayshore,PL Filed,2009-04-20,2009-04-20,2.0,"Construction of two new single-family residences on two vacant lots.
",,Resident,1915 Quesada Av,37.735817,-122.39612
93,3581012,Central,CONSTRUCTION,2013-02-27,2009-01-23,2.0,,"CHANGE SINGLE FAMILY DWELLING TO TWO FAMILY DWELLING, ADD THIRD STORY, EXTEND TO REAR, RECONFIGURATI",Resident,466 Sanchez St,37.761635,-122.430789
94,1029003,Western Addition,PL Approved,2009-06-16,2008-08-05,0.0,"The proposed project would demolish the existing 40-foot tall 5,225 sf, three-unit residential building and construct a new three-story assembly and classroom wing consisting of 15,604 sf to the existing adjacent Drew School campus. The new building would",,CIE,2901 California St,37.787712,-122.442235
95,1052024,Western Addition,BP Filed,2012-11-09,2008-04-29,81.0,"Demolition of existing convalescent care facility and construction of 84 residential dwelling units and 4,500 sq. ft. of retail. Building would be 40' and 65' in height and would total 168,900 sq. ft. with 126 parking spaces. ",ERECT 5-STORY TYPE V RESIDENTIAL & RETAIL BUILDING. GS,Mixres,2655 Bush St,37.785933,-122.440927
96,1069004,Richmond,BP ISSUED,2008-08-01,2006-02-13,2.0,DEMOLITION SFD,"ERECT A FOUR STORY, TWO UNIT RESIDENTIAL DWELLING",Resident,21 Wood St,37.783935,-122.448837
97,1583006,Richmond,BP Filed,2007-07-06,2007-07-06,2.0,,VERTICAL AND HORIZONTAL ADDITION TO EXISTING 2 LEVEL BUILDING AND ADD 1 UNIT.,Resident,623 40th Av,37.77688,-122.500766
98,1073013,Richmond,BP Filed,2012-04-16,2008-11-12,50.0,"The proposed project would demolish the existing one-story community center and construct a new building consisting of 83 dwelling units (59 units of work-force housing and 21 units of affordable housing.), 21,500 sq. ft. community center on the ground fl","TO ERECT 5 STORIES, 50 UNITS COMMUNITY CENTER / HOUSING, MIXED USED BUILDING WITH 1 BASEMENT.",Mixres,800 Presidio Av,37.784362,-122.446112
99,1080008,Western Addition,BP Filed,2007-02-21,2007-02-21,3.0,,VERTICAL AND HORIZONTAL ADDITION AND REMODELING FROM ONE FAMILY RESIDENCE TO THREE FAMILY RESIDENCES.,Resident,1419 Broderick St,37.78332,-122.441341
100,1084001B,Richmond,BP Filed,2007-12-14,2007-01-30,13.0,"The proposed project would demolish the existing gas station and construct a new 13-unit residential building with 1,700 sq. ft. of ground floor retail and 14 parking spaces. The building would be approx. 24,256 sq ft, four-stories, and 40 feet in height.","ERECT A NEW 4 STORIES, 13 UNITS MIXED USE BUILDING",Mixres,1 Stanyan Street,37.781257,-122.456337
101,1098009,Western Addition,BP Filed,2006-12-21,2006-12-21,0.0,"Conditional Use authorization request to allow demolition of existing mixed-use building and construction of a new 75,000 square foot medical office building.",TO DEMOLISH 21 DWELLING UNIT WITH COMMERCIAL SPACE,MIPS,1401 Divisadero St,37.782505,-122.439402
102,1101007,Western Addition,PL FILED,2010-09-01,,32.0,,,Resident,1301 Divisadero St,37.781605,-122.439229
103,1127007,Western Addition,CONSTRUCTION,2010-10-08,2008-06-27,19.0,,"TO ERECT 6 STORiES, 19 DWELLING S UNITS",Resident,1816 Eddy St,37.780881,-122.437677
104,1145003,Western Addition,CONSTRUCTION,2013-04-22,2010-08-06,0.0,,TO ERECT 5 STORIES EDUCATION BUILDING.,CIE,2130 Fulton St,37.775253,-122.451879
105,1364048,Richmond,CONSTRUCTION,2012-10-22,2006-07-18,6.0,"Demolish 850-square foot service station on parking lot for 10 cars and construct 3-story, 6-unit residential over commercial building in excess of 10,000 sq ft.",TO ERECT A NEW 4 STORY 6 UNIT BUILDING WITH RETAIL SPACE,Mixres,4201 California St,37.785174,-122.462539
106,1505027,Richmond,BP ISSUED,2009-08-11,2006-08-17,2.0,"2007.0179: The proposal would demolish an existing single-family building constructed in 1906, and construct a new two-unit residential building.
2008.0271: new 4 story, 2 unit building",TO ERECT 2 DWELLING UNIT WITH 3 STORY NEW BUILDING,Resident,536 40th Av,37.778556,-122.500535
107,1510013,Richmond,BP ISSUED,2010-07-01,2008-10-29,2.0,Addition of 1 unit and square footage to existing single-family residence.,"HORIZONTAL & VERTICAL ADDITION FROM SINGLE FAMILY DWELLING TO TWO UNITS RESIDENTICAL, TWO STORY TO F",Resident,563 34th Av,37.778483,-122.494454
108,1198004,Western Addition,BP ISSUED,2009-03-17,2008-04-25,2.0,,"PROJECT INCREASES TOTAL IN BLDG TO 2 UNITS. NEW GARAGE & ONE BEDRM, BATH UNIT IN (E) BASEMENT. THE F",Resident,417 Lyon St,37.774554,-122.442964
109,1198028,Western Addition,CONSTRUCTION,2009-11-17,2008-08-27,2.0,,NEW VERTICAL ADDITION (NEW 3RD FLOOR) CREATING A NEW DWELLING UNIT,Resident,560 Central Av,37.774715,-122.444355
110,1212022,Western Addition,BP Filed,2011-11-18,2011-11-18,3.0,,"ADD 3 STORY W/ 1 CARE FACILITY & 2 RESIDT. ADA STRETCHER ELEVATOR, 2 EXIT STAIRS REMODEL 3 MEDICAL O",Resident,2175 Hayes St,37.773036,-122.452092
111,1684002I,Richmond,CONSTRUCTION,2011-06-03,2007-12-20,2.0,"To construct a two-story vertical addition, fill in side setbacks at the rear of the structure and add one dwelling unit per the enclosed plans.",2 STORY VERTICAL ADDITION OVER EXISTING 2 STORY. CONVERT FROM 1 UNIT TO 2 UNITS,Resident,6524 Fulton St,37.771889,-122.501664
112,1228005,Buena Vista,PL APPROVED,2008-10-23,2006-02-15,56.0,"Demolish existing one-story retail and mezzanine containing approximately 23,600 sq. ft. and construct a new 62 unit residential structure with 34,400 sq. ft. of groundfloor retail. Two stories of underground parking would also be proposed for 176 total p","ERECT TYPE 1, 4 STORIES, 56 DWELLING UNITS & COMMERCIAL BUILDING.",Mixres,690 Stanyan St,37.769382,-122.453469
113,1368049,Richmond,BP Filed,2007-01-23,2003-05-28,0.0,"Demolition of 4620 and 4614 California Street, and the construction of a new pre-school and administration building.",TO ERECT FOUR STORY PRE-SCHOOL AND ADMINISTRATION NEW BUILDING,Mixed,4614 California St,37.784843,-122.466937
114,1432005,Richmond,BP ISSUED,2008-05-16,2007-12-21,2.0,2 new condominiums,"Add 1 unit to (E) SFD to become 2FD to include: remodeling 1st flr, new parking in (E) garage; closi",Resident,331 Arguello Bl,37.784499,-122.459286
115,1450007,Richmond,BP Filed,2008-06-27,2004-06-01,2.0,Existing theater building would be preserved - second floor would be expanded to create a full second floor full-service restaurant (preserving one theater screen) and ground floor would be for retail use.   New four-story mixed-use building would be cons,"ERECT A 3 STORIES, 2 FAMILY DWELLING",Resident,339 18th Av,37.781576,-122.477495
116,1453033,Richmond,BP ISSUED,2012-01-13,2005-05-27,1.0,,2 FAMILY RESIDENCES ADDITION & REMODELING,Resident,346 22nd Av,37.781273,-122.481432
117,1460024,Richmond,BP Filed,2008-04-15,2008-04-15,2.0,,"Add 2 stories over(e) 2 story S.F.D.convert into 2 units.1st flr: retain 2 car parking,bedrm,fam, ba",Resident,411 28th Av,37.781507,-122.488225
118,1466009,Richmond,PL Approved,2009-07-16,2008-07-24,2.0,"Vertical and horizontal addition of a 2-story single-family residence. Proposed 3-story with basement, 2-unit resindetial building.",,Resident,451 34th Av,37.780587,-122.494603
119,1517030,Richmond,BP ISSUED,2012-07-26,2007-06-14,3.0,"Existing 2-story SFD approx. 1500 sqft with 1 off-street parking space. Proposed 4-story 40' in height 3-unit over ground floor parking with approx 6,000 sqft.",TO ERECT 4 STORY 3 FAMILY DWELLING,Resident,520 28th Av,37.779397,-122.487732
120,1534026,Richmond,BP Filed,2008-03-10,2008-03-10,2.0,Horizontal and Vertical (2 stories) addition and creation of a second unit.  ,CONVERT SINGLE FAMILY DWELLING TO 2 UNITS BY HORIZONTAL EXTENSION IN FRONT AND REAR AND 2 FLOOR VERT,Resident,474 11th Av,37.77942,-122.469374
121,1537027,Richmond,BP Filed,2006-09-18,2006-09-18,3.0,"Addition and alteration to existing three unit building built in 1907.  Addition to front, rear and vertically.","REAR, FRONT & VERTICAL ADDITION TO EXISTING BUILDING INCLUDING ALTERATIONS TO EXISTING BUILDING PORTIONS TO REMAIN. ELECTGRICAL & PLUMBING BY SEPERATE PERMIT.",Resident,470 08th Av,37.779622,-122.466156
122,1570003C,Richmond,CONSTRUCTION,2013-04-19,2007-11-05,2.0,"To construct a 4-story, 2-unit building on a vacant lot in an RH-2 district.",CONSTUCT NEW 4-STORY TYPE 5 SINGLE FAMILY 2-UNIT BLDG.,Resident,641 27th Av,37.777259,-122.48685
123,1571015C,Richmond,BP Filed,2006-05-22,2006-05-22,2.0,,TWO FAMILY RESIDENCES. VERTIVCAL AND HORIZONTAL ADDITION AND REMODELING,Resident,622 29th Av,37.777454,-122.488659
124,1578014F,Richmond,BP Filed,2005-03-04,2005-03-04,3.0,,ADD (3) STORIES & (3) DWELLING UNITS ON THE EXISTING BUILDING,Resident,3448 Balboa St,37.77593,-122.495705
125,1601001,Richmond,CONSTRUCTION,2008-12-31,2007-06-26,2.0,"Off-street parking variance to legalize the addition of one dwelling unit on the ground floor of the one-story, single-family dwelling.  A single off-street parking space will continue to be provided in the existing garage.",LEGALIZE 2ND UNIT. CONVERT EXISTING SFD TO 2 UNIT RESIDENTIAL.  REMODEL GROUND FLOOR FOR NEW KITCHEN,Resident,701 43rd Av,37.775204,-122.503878
126,1607017A,Richmond,BP Filed,2006-10-13,2006-10-13,1.0,,"VERTICAL AND HORIZONTAL ADDITION (ADD 3RD FLOOR AND REAR ADDITION, FROM SINGLE FAMILY DWELLING TO 2 UNIT. THIS ADDRESS ZONE FOR 2 UNITS",Resident,766 38th Av,37.774494,-122.498116
127,1607024,Richmond,PL Filed,2008-12-19,2008-12-19,4.0,"Demolish 2 exisitng one story commercial buildings on two lots, merge lots and construct a 4-unit resindetial, 1-unit commercial/office, 1-unit commercial/retail, and 1 level of storage for occupants",,Mixres,3619 Balboa St,37.775566,-122.497575
128,1608012,Richmond,BP Filed,2008-09-04,2008-09-04,2.0,,"VERTICAL ADDITION OF TWO FLOORS ABOVE TWO STORIES (E)-ADD ONE FULL DWELLING UNIT. ELECTRICAL, PLUMBI",Resident,762 37th Av,37.774595,-122.497065
129,1609021F,Richmond,BP Filed,2008-09-26,2008-09-26,6.0,,TO ERECT 6 DWELLING UNIT WITH FOUR STORY NEW BLDG.(COMMERCIAL AND RESIDENTIAL),Mixres,700 36th Av,37.775575,-122.496055
130,1611001,Richmond,BP Filed,2008-06-13,2008-06-13,3.0,,"ERECT A 3 STORY, 3 DWELLING UNITS AND MIXED USE BUILDING; DEMOLISH A FITNESS AND OFFICE BUILDING",Mixres,3201 Balboa St,37.775832,-122.493129
131,1618007,Richmond,PL Approved,2009-12-10,2009-06-11,2.0,Addition/alteration to single-family residence and add second unit.,,Resident,762 27th Av,37.775093,-122.486347
132,1640051,Richmond,BP Filed,2013-03-07,2011-03-03,6.0,"Add residential units/ CU for parking V for rear yard, exposure and nonconfomplying sturture","REVISION TO PA# 2011-0128-9269-1ST FL-REMOVE 2 BEDROOMS, ADD STUDY & INCREASE GREAT ROOM. ENLARGE (E",Resident,327 Balboa St,37.77716,-122.4622
133,1642036,Richmond,BP ISSUED,2013-01-25,2007-11-19,2.0,,Vertical extension to convert a 2 story + attic single family residential building by adding one sto,Resident,658 03rd Av,37.77631,-122.460569
134,1643051,Richmond,PL Approved,2009-01-12,2010-03-02,2.0,One story vertical addition over the existing two-story over garage and convert existing single-family dwelling to two family dwellings.,,Resident,25 Balboa St,37.777335,-122.459283
135,2396036,Outer Sunset,BP Filed,2006-12-06,2006-12-06,2.0,,"ADD 2 FLOORS ON TOP OF(E)BLDG. & ALSO HORIZONTAL ADDITION TOWARDS REAR YARD. COMPLETED BUILDING TO HAVE: 1/F- 520 SQ.FT. OF OFFICE SPACE & 2 CAR GARAGE.2/F RESIDENT-UNIT#1 WITH LIVING ROOM, DINING ROOM, KITCHEN, SUTDY ROOM, 2 BEDROOM, 2 BATHS.3/F UNIT#2-L",Resident,2416 30th Av,37.742095,-122.487281
136,2515001,Outer Sunset,PL Approved,2008-11-13,2007-07-19,55.0,"Demolition of existing buildings and construction of three new five-story buildings with a total of 55 dwelling units, 48 parking spaces in an underground parking garage, 26,000 gsf of ground floor retail, and 34 covered spaces for the commercial use. ",,Resident,2800 Sloat Bl,37.735642,-122.504306
137,1671008M,Richmond,PL Approved,2008-07-10,2006-12-06,2.0,New Construction,,Resident,850 29th Av,37.773303,-122.488368
138,1672018,Richmond,BP ISSUED,2009-01-26,2007-11-28,2.0,,(N) THIRD FLOOR VERTICAL ADDITION (2ND UNIT). RELOCATE GARAGE DOOR & ENTRANCE. EXPAND & RECONFIGURE ,Resident,874 30th Av,37.772896,-122.489411
139,1684004L,Richmond,PL Approved,2008-02-15,2008-01-16,2.0,Add 2nd unit to 3rd floor of existing building. Remodel existing 2nd floor and garage floor.,"ADD 3/F NEW 2ND UNIT ADDITION, LEGALIZED EXISTING GROUND FLOOR ROOM & EXTENTION.",Resident,806 42nd Av,37.773307,-122.502354
140,1688001A,Richmond,BP Filed,2006-12-13,2006-12-13,3.0,,ERECT 4 STORIES 3 DWELLING UNITS BLDG.  PLUS COMMERCIAL,Resident,4411 Cabrillo St,37.773297,-122.505954
141,1690032,Richmond,BP REINSTATED,2011-11-08,2007-09-07,2.0,,"Vertical addition: Add 2 additional stories, to include a penthouse level at (E) 2 story bldg. Submi",Resident,836 48th Av,37.772576,-122.508751
142,1707047,Outer Sunset,CONSTRUCTION,2008-03-25,2003-06-20,1.0,,VERTICAL AND HORIZONTAL ADDITION,Resident,4227 Lincoln Wy,37.764167,-122.503298
143,1726006,Outer Sunset,BP Filed,2005-07-19,2005-07-19,2.0,,"TO EXTEND (E) BLDG AT REAR, ADD A STORY ON TOP & A 2ND DWELLING UNIT PER PLANS.",Resident,1235 24th Av,37.764469,-122.482742
144,1736033,Inner Sunset,CONSTRUCTION,2013-01-08,2006-05-11,2.0,,TO ERECT 2 DWELLING UNIT WITH 3 STORY NEW BUILDING,Resident,1208 15th Av,37.765322,-122.472728
145,2623028,Buena Vista,BP Filed,2005-12-08,2005-12-08,5.0,"5 unit residential building over garage, residential demo over 1.2 milion",ERECT 5 STORIES 5 DWELLING BLDG.,Resident,4126 17th St,37.762376,-122.437894
146,2625007A,Buena Vista,BP Filed,2006-03-03,2005-09-02,2.0,Renovation and rehabilitation of an existing residential building constructe c. 1900.,ERECT 4 STORIES OF 2 DWELLING  UNITS.,Resident,70 Douglass St,37.762618,-122.439699
147,2821010,Inner Sunset,BP APPROVED,2012-03-02,2007-11-07,1.0,,ERECT A NEW 2 STORY SINGLE FAMILY DWELLING.,Resident,83 Panorama Dr,37.74703,-122.451081
148,2821021,Inner Sunset,BP APPROVED,2010-05-26,2008-10-22,1.0,"Proposed to escavate and ugrade an existing unimproved portion of the public right-of-way and construct : driveways,retaining walls, sidewalk improvements,landscaping.",ERECT 3 STORY SINGLE FAMILY DWELLING.,Resident,1240 Twin Peaks Bl,37.746403,-122.450232
149,3511055,WSoMa,PL Approved,2009-06-11,2007-05-18,4.0,"The proposal is to demolish a single-family fire-damaged structure, origianlly constructed in 1922, and to construct a new 4-unit residential structure in five stories.",,Resident,1029 Natoma St,37.773114,-122.416344
150,3703086,Downtown,BP Filed,2006-02-02,2006-02-02,47.0,"Demolish existing 15,000 sq. ft. office/printing shop and construct 47 dwelling units and 24 parking spaces. Total sq. footage of new struction would be 31,135 (36,973, as of 3-28-2007) sq. ft. and building would be approximately 80' (74' 10"", as of 2-28-","TO ERECT 8 STORY, 47 CONDO UNITS",Resident,570 Jessie St,37.781122,-122.409809
151,1742043,Inner Sunset,CONSTRUCTION,2013-03-15,2008-06-26,15.0,"Existing 2-story, 6,000 sqft mortuary/office building with 28 space parking lot would be demolished. Proposed 3-story, 40-foot building with ground floor retail and 2-stories of residential.",construction of a new 4-story bldg with 15-unit condos.,Mixres,1266 09th Av,37.764735,-122.466193
152,1767031,Inner Sunset,BP REINSTATED,2009-12-17,2007-10-30,2.0,Add 2nd dwelling unit to existing single-family residence with new vertical addition 3rd floor at rear of building.,"VERTICAL/HORIZONTAL ADDITION, ADD 3RD & 4TH FLOOR OVER (E) 2 STORIES, CONVERT TO TWO UNITS, MODIFY (",Resident,1354 Funston Av,37.762863,-122.470364
153,1800010A,Outer Sunset,CONSTRUCTION,2008-06-19,2004-04-14,2.0,,"HORIZONTAL ADDITION AT REAR, ADD ONE MORE UNIT",Resident,1359 45th Av,37.761258,-122.505099
154,1843019,Inner Sunset,BP Filed,2006-07-21,2006-07-21,2.0,"The proposal is to construct a three-story rear addition and convert the building to a two-family dwelling in Zoning District RH-2. The addition would measure 27-feet in depth, 31-feet in height, and 25-feet in width. The addition includes new stairs at t",2 FAMILY RESIDENCES HORIZONTAL ADDITION & REMODELING.,Resident,614 Kirkham St,37.760373,-122.467382
155,1865009,Outer Sunset,BP ISSUED,2008-03-31,2007-07-11,2.0,,2 STORIES VERTICAL ADDITION AND HORIZONTAL ADDITION FOUNDATION TO BE UPGRADE 1 UNIT (E) BLDG. TO BE ,Resident,1559 19th Av,37.758742,-122.476925
156,1895043,Outer Sunset,PL Approved,2008-07-10,2008-04-17,0.0,Demolition and construction of a new nursery school/day care center.,,CIE,1600 Great Hy,37.756359,-122.508733
157,1934023,Inner Sunset,BP Filed,2006-12-01,2006-12-01,2.0,The proposal is to construct a horizontal addition to northern side of the subject dwelling in order to incorporate a second dwelling unit and a second parking space in Zoning District RH-2. The addition is two stories and approximately 420 square feet on,HORIZONTAL ADDITION TO CONVERSE A SINGLE FAMILY DWELLING TO 2 UNIT RESIDENCE APPROX 397 SF ON 1/F AND 418 SF ON 2/F),Resident,1698 10th Av,37.756739,-122.466704
158,1939001,Treasure Island,PL Approved,2011-03-15,2011-03-15,8619.0,"Development and Redevelopment Plan for Treasure Island and Yerba Buena Island, including land uses up to (approximately): 6,000 units residential, 500 rooms hotel, 250,000-sf retail, 300 acres park and open space, parking, reuse and historic rehabilitatio",,Mixres,Treasure Island,37.823551,-122.371048
159,2039044,Inner Sunset,BP Filed,2008-07-03,2008-07-03,2.0,,"NEW 3RD FLOOR ADDITION TO (E); ADD MASTER BEDROOM W/BATH, BEDROOM AND FULL BATH AT GROUND FLOOR, INT",Resident,427 Moraga St,37.756377,-122.467188
160,2040001,Inner Sunset,CONSTRUCTION,2013-01-08,2009-02-24,6.0,"Demo existing commercial building, subdivide lot into 3 lots and construct three 2-unit residential buildings.",Multiple Permits,Resident,1701 09th Av,37.756362,-122.465946
161,2094005,Outer Sunset,CONSTRUCTION,2011-05-20,2008-09-03,0.0,"Demolish most of the existing library, move the site closer to Ortega Street, and build a new approximately 8,500 sq.ft. single story library in a P zone with an OS land designation.",CONSTRUCTION OF A NEW ONE STORY WOOD FRAME NON-RATED BRANCH LIBRARY.,CIE,3223 Ortega St,37.751287,-122.49805
162,2330005E,Outer Sunset,BP ISSUED,2008-07-03,2004-11-09,1.0,,"VERTICAL & HORIZONTAL ADDITION- ONE STORY OVER EXISTING 2 STORY BLDG. HALF BATHRM. STORAGE RM, BEDRM",Resident,2243 19th Av,37.745933,-122.476036
163,2347004G,Inner Sunset,BP APPROVED,2012-11-27,2007-02-16,10.0,"The proposed project would demolish a 300 square foot carport/office shack, subdivide one lot into five new (25'x100') lots, and the construct two units on each lot for a total of ten dwelling units.",Multiple Permits,Resident,2350 19th Av,37.743958,-122.475558
164,2349036,Outer Sunset,BP ISSUED,2011-11-08,2008-06-03,2.0,,"VERTICAL AND HORIZONTAL ADDITION, CONVERT 2 STORY SINGLE FAMILY DWELLING INTO 4 STORY, 2 UNITS. GROU",Resident,2322 21st Av,37.744283,-122.477759
165,2374019,Outer Sunset,BP APPROVED,2009-02-26,2007-12-12,3.0,3 new condo construction,VERTIACL & HORIZONTAL ADDITION TO EXISTING BUILDING. CONVERT EXISTING RETAIL TO 3 FAMILY DWELLING. R,Resident,3534 Taraval St,37.741935,-122.503969
166,2394046,Outer Sunset,BP ISSUED,2012-12-31,2009-06-17,2.0,"Existing 2,150 sqft, 22'-0"" two-unit residence with ground floor commercial. Proposed 5,000 sqft, 50'-0"" two-unit residence with office and commercial space.","TO ERECT 4 STORIES, 2 UNITS, MIXED USE BUILDING.",Mixres,2115 Taraval St,37.742335,-122.488777
167,2620119,Buena Vista,BP Filed,2012-06-29,2012-06-29,2.0,New construction fo two dwelling units w/ 3 stories over basement for each unit,"ERECT 3 STORIES, TYPE 5, 2 DWELLING UNITS BUILDING.",Resident,188 Museum Wy,37.763913,-122.438955
168,2630018,Inner Sunset,BP APPROVED,2010-09-21,2008-03-28,2.0,,"New construction of two residential units, 3 STORIES.",Resident,1169 Stanyan St,37.762717,-122.452286
169,2636025,Inner Sunset,PL Approved,2013-03-07,2004-03-25,34.0,"The proposed project would involve the construction of 34 dwelling units and 40 off-street parking spaces in four new buildings on an undeveloped site.  The residential buildings would four stories in height, approximately 20 feet in height from grade.  T",,Resident,Crestmont Drive,37.75506,-122.45855
170,2706035,Central,CONSTRUCTION,2012-07-05,2004-07-15,1.0,"The proposal is to construct a new three story, single-family dwelling on a VACANT lot on an undeveloped portion of Stanyan Street in an RH-1 (D) District.",ERECT A TWO STORY SINGLE FAMILY DWELLING,Resident,1310 Stanyan St,37.758762,-122.451352
171,2716056,Central,CONSTRUCTION,2010-11-02,2007-05-25,2.0,The proposal is to construct a new two-unit building with two parking spaces on a vacant lot.,"ERECT 2-STORY, 1 BASEMENT AND 2 DWELLING UNITS BUILDING.",Resident,170-180 Yukon Street,37.757282,-122.442446
172,2719B003,Central,BP Filed,2008-03-27,2008-03-27,1.0,Mnadatory DR for demo/new construction,NEW SINGLE FAMILY RESIDENCE,Resident,125 Crown Tr,37.757425,-122.446899
173,2752024,Central,BP Filed,2006-01-13,2006-01-13,1.0,,ERECT 2 STORIES SINGLE FAMILY DWELLING,Resident,331 Collingwood St,37.75715,-122.435594
174,2764021,Central,BP Filed,2005-01-21,2005-01-21,2.0,,ERECT 4 STORIES OF 2 FAMILY DWELLING,Resident,3715 Market St,37.75456,-122.441662
175,2768007,Central,BP ISSUED,2008-11-18,2007-09-11,2.0,"Addition of a single-story garage to the front of the existing 3-story, 2,253 sqft single-family dwelling. Convert existing garage into new unit. Rearyard horizontal addtion. The result is a 3,008 sqft two-unit residence.",Add one story garage (2) car garage in (E) front. Horizontal addition at rear (add one story to exis,Resident,446 Diamond St,37.755194,-122.436837
176,3701064,Downtown,CONSTRUCTION,2013-04-26,2011-08-23,273.0,,"TO ERECT 17 STORIES, 273 UNITS RESIDENTIAL, RETAIL & PARKING BUILDING.",Resident,55 9th St,37.776968,-122.415414
177,3702046,Downtown,PL Approved,2012-10-25,2012-05-02,,"The project would renovate the existing 12,300 sf movie theater to a 299-seat live theater with support spaces (dressing rooms, rehearsal space, box office), offices and ground floor restaurant/cafe fronting Market Street. ",,Retail/Ent,1127 Market St,37.77991,-122.413044
178,3703079,Downtown,PL Approved,2009-05-14,2008-11-05,100.0,"100% Affordable residential mid-rise, 106-du, with ground-floor retail, approx 116,055-gsf total, on two lots, in one structure with two bldg two masses-- one 13-story, one 8-story --and two City Carshare spaces, on existing surface parking lot.",,Mixres,1036-1040 Mission St,37.780374,-122.409685
179,2821022,Inner Sunset,BP APPROVED,2010-05-26,2008-10-22,1.0,,ERECT A THREE STORY SINGLE FAMILY DWELLING.,Resident,1230 Twin Peaks Bl,37.746442,-122.450135
180,2845005,Central,BP APPROVED,2013-04-18,2009-08-25,5.0,To subdivide the existing lot into two lots and construct a new four-family dwelling on the proposed vacant lot. ,"TO ERECT 4 STORY TYPE 5, 5 DWELLING UNITS",Resident,70 Crestline Dr,37.751268,-122.446163
181,2861011,Inner Sunset,BP Filed,2008-10-31,2008-10-31,1.0,To construct a three-story over garage single-family dwelling on a vacant lot.,"ERECT A 3-STORIES, SINGLE FAMILY RESIDENCE WITH 1 BASEMENT.",Resident,160 San Marcos Av,37.747021,-122.465326
182,2936A001D,Inner Sunset,BP Filed,2012-08-20,2006-02-01,1.0,"To construct a new single-family dwelling on a vacant lot.  Due to slope of the lot, the new dwelling will be 4-stories over a garage in the front and 2-stories in the rear in an RH-1(D) district.","TO ERECT 4 STORIES, SINGLE FAMILY DWELLING BUILIDNG.",Resident,69 Garcia Av,37.744024,-122.459319
183,2979A021A,Inner Sunset,PL Approved,2009-05-14,2008-10-02,0.0,Expansion of existing dental office to lower street level to provide access from West Portal Avenue.,,MIPS,99 West Portal Av,37.739766,-122.466755
184,2987A036,Inner Sunset,CONSTRUCTION,2012-01-04,2006-09-06,1.0,The proposal is to construct a new single-family dwelling on a vacant lot in zoning district RH-1(D).,TO ERECT A NEW 2 STORY SINGLE FAMILY DWELLING UNIT,Resident,1325 Portola Dr,37.739799,-122.46431
185,3027A001,"Ingleside, Other",CONSTRUCTION,2013-02-04,2008-05-06,3.0,,CONSTRUCTION OF THREE-STORY SINGLE FAMILY DWELLING.,Resident,207 Los Palmos Dr,37.735778,-122.449054
186,3180001,Balboa Park,PL Approved,2010-07-12,2009-12-14,71.0,"New construction of mixed-use building with approximately 60 units of affordable housing, and 7,000 sq.ft of retail, and 6 parking spaces. ",,Mixres,50 Phelan Av,37.723638,-122.452174
187,3197010,Balboa Park,BP Filed,2008-10-31,2008-05-15,13.0,Demolition of an existing gas station with accessory use and construction of a 4-story building with 13 residential units over commercial space and a 13-car garage.,"ERECT 4 STORIES COMMERCIAL & RESIDENTIAL, 13 DWELLING UNITS BUILDING.",Resident,1446 Ocean Av,37.724356,-122.45772
188,3507041,Downtown,CONSTRUCTION,2012-02-23,2006-05-03,719.0,Construction of new mixed-use building containing approximately 719 dwelling units and up to 719 parking spaces,TO ERECT A NEW 35 STORY 719 DWELLING UNITS WITH RETAIL & PARKING  & ASSEMBLY SPACE,Mixres,1401 Market St,37.776411,-122.417545
189,3509027,WSoMa,BP Filed,2008-07-30,2008-06-05,2.0,DEMOLITION OF EXISTING ONE-STORY OVER GARAGE SINGLE-FAMILY HOME. CONSTRUCTION OF A 5-STORY BUILDING WITH TWO RESIDENTIAL UNITS AND TWO OFFICES.,TO ERECT A NEW 5 STORY 2 UNIT BUILDING WITH OFFICES.,Resident,49 Grace St,37.775088,-122.414618
190,3510001,Downtown,BP Filed,2008-10-31,2008-10-31,117.0,"Demo. of a tire store and construction of a 16-story mixed-use project with 156 dwelling units, 156 off-street valet parking spaces, and 2,350 GSF of ground floor retail use & 2,430 sf office.  Zoning Map Change, CU, and Section 309.",CONSTRUCTION OF FOURTEEN STORIES WITH 3 BASEMENTS ONE HUNDRED SEVENTEEN UNITS W/COMMERCIAL MIXED USE,Mixres,1415 Mission St,37.775095,-122.415999
191,3518007,WSoMa,CONSTRUCTION,2009-04-22,2002-03-15,2.0,Shadow Study for a new mixed-use building,ERECT A FIVE STORY COML BLDG WITH 2 RESIDENTIAL UNITS,Mixres,252 09th St,37.774212,-122.412427
192,3521005,WSoMa,BP Filed,2005-04-11,2005-04-11,20.0,"Demo. of an existing service station and construction of a five-story, mixed-use building with 20 dwelling units, 20 off-street parking spaces, and appx 5,682 GSF of ground floor retail use.  ",DEMOLISH 2 STORIES GARAGE,Mixres,340 11th St,37.771251,-122.413472
193,3525046,WSoMa,BP ISSUED,2008-08-13,2007-12-06,0.0,,CONSTRUCTION OF 2-STORY TYPE 5-1 HOUR AUTOMOBILE REPAIR SHOP.,PDR,264 Dore St,37.771209,-122.409829
194,3530049,Mission,BP ISSUED,2008-04-22,2007-10-03,1.0,,Change of occupancy at 2nd floor to R-3/ PROVIDE 1 HOUR SEPARATION BETWEEN NEW DWELLING UNIT AND EXI,Resident,160 14th St,37.768593,-122.417115
195,3533165,Market Octavia,BP REINSTATED,2012-03-06,2007-08-10,3.0,"The proposal is to demolish an existing office building and construct a new residential, four-story building containing three dwelling units.",TO ERECT 4 STORY 3 FAMILY DWELLING,Resident,85 Brosnan St,37.768534,-122.423968
196,3534069,Market Octavia,BP ISSUED,2012-12-27,2009-07-22,37.0,"The proposed project would include the demolition of a vacant auto garage and construct a 46-unit residential building with 29-parking spaces. The building would be four-stories, approximately 40 feet in height and 62,030 sq. ft. ",ERECT FOUR STORY 37 UNITS APARTMENT BUILDING.,Resident,25 Dolores St,37.768713,-122.426525
197,3535001,Market Octavia,CONSTRUCTION,2013-04-25,2008-12-18,82.0,"The project replaces the S&C Ford Showroon and adjacent parcel residential buildings with 185,418-gsf mixed use development: 29,715-gsf retail grocery with six to two floors of residential condominiums over, and two subsurface parking levels, totalling 75","TO ERECT 8 STORIES, 82 UNITS RESIDENTIAL, RETAIL AND GARAGE BUILDING.",Mixres,2001 Market St,37.769006,-122.426906
198,3537078,Market Octavia,BP Filed,2013-01-09,2013-01-09,3.0,,CONVERSION OF (E) STORAGE TO CONDITIONED / LIVING SPACE TO ACCOMODATE ONE NEW UNIT @ 1ST FLOOR. PROP,Resident,45 Belcher St,37.768604,-122.429986
199,3537087,Market Octavia,PL Approved,2011-08-10,2008-03-20,5.0,Addition of 6th dwelling unit without sufficient exposure,ADDING 3 RESIDENTIAL DWELLING UNITS TO THE BUILDING. MAINTAINING THE CURRENT COMMERCIAL PERMITTED US,Resident,435 Duboce Av,37.769304,-122.430024
200,3542039,Market Octavia,PL Filed,2013-01-16,2013-01-16,,"New construction of mixed use project consisting of 85 dwelling units, 4,745 sf of retail space on Market Street.  Parking in a below grade garage for 35 independent stalls, 1 car share and 87 bicycles.  Lot is currently vacant. E application (1/16/13) pr",,Vacant,2198 Market St,37.766269,-122.430753
201,3543011,Market Octavia,BP ISSUED,2013-04-17,2012-06-01,88.0,"The proposed project is the demolition of an existing gas station and construction of a new mixed use building with 88 dwelling units,44 off-street parking spaces, and 6,286 sf of retail space. The proposed new building would 

have a height along Market ","ERECT 6 STORIES , 88 DWELLING UNIT.TYPE 5 OVER 1",Mixres,2175 Market St,37.766292,-122.430245
202,3547002A,Mission,CONSTRUCTION,2013-03-11,2003-07-10,194.0,Demolish light industrial bldg and construct 194-unit PUD with commercial and 225 parking spaces.,,Resident,1880 Mission St,37.767068,-122.420027
203,3547032,Mission,PL Approved,2012-01-26,2005-05-26,8.0,"Construction of five-story eight-unit residential building of approximately 10,583-sf.  Demolition of existing 1962 light industrial warehouse, presently vacant.  No off-street parking existing and eight proposed.",,Resident,49 Julian Av,37.767435,-122.420946
204,3548032,Mission,BP ISSUED,2012-12-12,2010-10-21,23.0,"The proposed project is renovation and interior remodeling of an existing commercial building to residential units and commercial space. The project is proposing 38 residential units, 23 off-street parking spaces, and 2,800 square-feet of commercial space",ADAPTIVE RE-USE OF (E) 4 STORY CONCRETE FRAMED BUILDING. CHANGE OF USE FROM STORAGE TO MIXED US (PRI,Mixres,1875 Mission St,37.767166,-122.419694
205,3548039,Mission,BP Filed,2006-07-17,2004-07-20,18.0,"Construction of a seven-story structure with 36 affordable senior housing units, no off-street parking, and appx. 2,600 GSF of ground floor commercial use.  ","TO ERECT 7 STORY, 18 UNIT MIXED USE BUILDING",Mixres,1801 Mission St,37.768125,-122.419783
206,3548065,Mission,BP ISSUED,2012-09-17,2012-06-12,3.0,Demolition of a single family dwelling and construction of a three family dwelling unit. ,"DEMOLISH 2 STORIES, 1 DWELLING UNIT, RESIDENTIAL BUILDING.",Resident,1340 Natoma St,37.767672,-122.418659
207,3553054,Mission,CONSTRUCTION,2013-04-30,2011-04-14,40.0,"Demo gas station, construct 6-story, 40-du bldg with 32 parking spaces.
U Case Description: Request for Written Determination Pursuant to Planning Code Section 228.4- Service Station Conversion Determination
2007.1359C Demolition of vacant gas station str","TO ERECT 5 STORY OVER 1 BASEMENT, 40 UNITS RESIDENTIAL & COMMERCIAL BUILDING.",Mixres,1501 15th St,37.766736,-122.417728
208,3555036,Mission,BP Filed,2012-10-24,2012-10-24,8.0,,"ERECT 5-STORY, TYPE 3, 8 DWELLING UNITS BUILDING.",Resident,1785 15th St,37.766288,-122.423784
209,3598028,Central,BP Filed,2006-01-12,2006-01-12,8.0,"Conditional use authorization to allow construction of a new church  (Second Church of Christ, Scientist) pursuant to Section 209.3(j), eight new dwelling units pursuant to Section 209.1(h), and off-street parking for up to 42 cars for the church use purs",DEMOLITION OF A ONE STORY CHURCH,Mixres,651 Dolores St,37.759023,-122.425726
210,3601073,Central,BP Filed,2008-08-13,2007-11-01,1.0,Addition to single-family residence to create an additional unit and three off-street parking spaces.,ERECT 5 STORY SINGLE FAMILY DWELLING. (3 STORY OCCUPANCY & 2 BASEMENTS),Resident,3927 19th St,37.759399,-122.431086
211,3613018B,Mission,BP REINSTATED,2013-04-24,2005-07-14,3.0,"Construct  two stories vertical  and  four stories  horizontal addition to the rear of  the existing two-story, single-family house. The  proposal would also add two dwelling units and an underground parking garage.  A rear yard variance is sought for the","ALTERATION OF (E) 1ST AND 2ND FLOORS, CONSTRUCTION OF 3RD & 4TH FLOOR, BASEMENT, ADDING TWO ADDT'L",Resident,2986 22nd St,37.755873,-122.414062
212,3615026,Mission,BP ISSUED,2009-08-26,2003-02-21,0.0,"The project is to demolish the existing single-story retail building and construct a new building that would be three-stories tall and would contain retail on the ground floor and offices on the second and third floors.
6/15/05 - Environmental Exemption",ERECT A 3 STORY COMMERCIAL SHOP & OFFICE,MIPS,2525 Mission St,37.756561,-122.418695
213,3616007,Mission,BP Filed,2013-01-16,2005-12-21,114.0,"The project is a PUD and new construction of up to 125 units of residential over ground floor commercial on the site of to-be-demolished Giant Value store, adjacent to the New Mission Theater, which would be renovated to include theater, restaurant, and b","ERECT NEW TYPE I BUILDING (RETAIL, MULTI-FAMILY RESIDENTIAL & PARKING)",Resident,2558 Mission St,37.75611,-122.418986
214,3726103,Downtown,PL Filed,2012-08-14,2012-08-14,119.0,"A new 8-story residential development consisting of 48 dwelling units, 1 level of below-grade parking with 15 spaces, and 2,795 sf of ground floor retail.",,Mixres,114 07th Street,37.778948,-122.410813
215,3617008,Mission,BP Filed,2010-12-27,2010-03-12,15.0,"New Construction of 16-du Res Mixed Use bldg, w/25,000-gsf residential, 2,000-gsf retail, and 2,800 full basement storage, totalling 30,480 with one loading space retained.  Demolition of 1970-constrone-story SPORK restaurant bldg and parking, and replace","ERECT 5 STORIES OF 15 DWELLING UNITS, WITH COMMERCIAL,TYPE 5.",Mixres,1050 Valencia St,37.756003,-122.421124
216,3628014,Central,BP Filed,2006-02-09,2006-02-09,2.0,,ERECT 2 STORIES 2 DWELLING UNITS BLDG.,Resident,1090 Church St,37.753555,-122.427786
217,3639002,Mission,CONSTRUCTION,2013-04-19,2010-05-06,20.0,Demolition and new construction 30-unit residential building over basement level parking,ERECT 4 STORY 20 UNITS APARTMENT BUILDING WITH GARAGE.,Resident,2652 Harrison St,37.754996,-122.41228
218,3639004A,Mission,CONSTRUCTION,2013-04-30,2004-09-16,3.0,"The project is the demolition of a vacant 11,423-sf industrial building constructed in 1935 and the lot subdivision and construction of two residential buildings to total 43,649-sf and 62 units, in an Eastern Neighborhoods C-M zoning district.  Twelve per",1 STORY ADDITION OVER PART OF (E) 2 STORIES BUILDING NEW RESIDENTIAL AT 2ND & 3RD FLOOR. (3 UNITS) E,Resident,2660 Harrison St,37.754893,-122.412271
219,3639028,Mission,PL Approved,2008-05-22,2008-03-20,5.0,The project includes minor improvements to a single family dwelling and construction of a new warehouse building with four residential units above.  ,,Mixres,953 Treat Av,37.754948,-122.41303
220,3642027,Mission,BP Filed,2005-09-09,2005-09-09,5.0,,"TO ERECT 4 STORIES, 5 DWELLING UNIT OF RESIDENTIAL APARTMENTS & COMMERCIAL (RETAIL).",Resident,2751 Mission St,37.75304,-122.418373
221,3704015,Downtown,CONSTRUCTION,2013-04-26,2009-03-11,,"Demolition of 17,000 square feet of commercial (film) use, construction of a 13-story hotel  w/165 tourist hotel rooms, 63,286 sfhotel space and 7,840 sf of retail and public space. Project is 46,126 gsf and building height 103 feet.
gross square footage ",ERECT A 15 STORY 174 GUEST ROOM HOTEL.,Visitor,942 Mission St,37.782072,-122.407563
222,3704069,Downtown,CONSTRUCTION,2008-08-14,2004-11-17,100.0,69 new construction/mixed use (67 RES. AND 2 COMM.),,Mixres,973 Market St,37.782644,-122.409745
223,3704071,Downtown,PL Approved,2010-11-08,2008-02-22,0.0,"Section 309 Review Required with one exception (freight loading) request. Conditional Use Authorization request to exceed allowable accessory parking per Section 303, 157 and 158.  Variances requested per Section 102.11 to allow modification of gross floo",,Retail/Ent,949 Market Street,37.782982,-122.409146
224,3706093,Downtown,PL Filed,2012-10-26,2012-10-26,185.0,"The proposed project would result in partial demolition and rehabilitation of the Arson Mercantile Building into a new 42-story, 500-foot high building containing 185 residences, retail, and the 36,560 sf Mexican Musuem. The proposed project would also in",,Mixres,706 Mission St,37.786159,-122.402378
225,3710017,TB Combo,CONSTRUCTION,2013-04-08,2008-11-19,0.0,"The project site is occupied by a four-story building with approximately 95,000 sq. ft. of office, retail, and acessory uses. The proposed project would demolish the existing building and construct a 28-story, 455' ft high office tower consisting of 503,0","TO ERECT 27 STORIES, OFFICE, RETAIL & PARKING BUILDING.",MIPS,350 Mission St,37.790809,-122.396374
226,3717019,Downtown,CONSTRUCTION,2012-06-13,2006-05-11,0.0,"Three-story, approximately 67,000 square-foot vertical addition to existing 155,000 square-foot nine-story office building.","PROPOSED VERTICAL ADDITION REMOVING EXTG PENTHOUSE AND CONSTRUCTING 4 NEW STORIES WITH FULL FLOOR PLATES, NEW STRUCTURE WILL BE STEEL MOMENT FRAME AND MECHANICAL WILL BE VARIABLE AIR VOLUME-REPLACE 3 EXTG ELEVATORS",MIPS,120 Howard St,37.791226,-122.3929
227,3719010,TB Combo,PL Approved,2013-03-15,2007-05-15,140.0,"66-story office mixed-use high-rise project, 796,933 total gsf, 878-ft, with class A office space (floors 2-44), 140 units residential (floors 47-65), with sky lobby, and auto lift-accessed 241-space 4-level underground parking;  requiring demolition of t",,Mixres,181 Fremont St,37.789645,-122.395424
228,3720001,TB Combo,BP Filed,2013-03-13,2008-07-01,0.0,"Transbay Tower project is a 1,200-ft tall, 80-story, 1,880,000-sf office building with 43,000-sf retail in three floors, uppermost connected by retail bridge to proposed Transbay Transit Center City Park, 300-400 parking spaces in subsurface garage access","TO ERECT 61 STORIES WITH 3 BASEMENTS, OFFICE, RETAIL, PARKING BUILDING.",MIPS,425 Mission St,37.790167,-122.396833
229,3721122,TB Combo,CONSTRUCTION,2012-11-26,2005-08-04,0.0,"The proposed project would demolish the existing surface parking lot and construct an approx. 293,750 sq. ft. office building, with 2,680 sq. ft. of retail and 50 parking spaces. The building would be approximately 356,400 sq. ft., 27 stories and approxim",,MIPS,535 Mission St,37.789001,-122.398343
230,3722079,TB Combo,PL Approved,2008-12-11,2008-02-22,118.0,Section 309 Review and Request for one exception (freight loading). A variance from Section 155 is also required as the project sponsor proposes a porte cochere at the Natoma Street frontage. The project would convert the existing building from office to ,,Mixres,134-140 New Montgomery St,37.786889,-122.399975
231,3725101,Downtown,CONSTRUCTION,2013-04-29,2007-12-05,55.0,"New construction of 58 ownership dwelling units, 100% affordable, over ground-floor parking (17 spaces)",,Resident,474 Natoma Street,37.780724,-122.407222
232,3726075,East SoMa,BP Filed,2008-09-25,2008-09-25,10.0,"Demolish existing 1,875 sqft, 19'-0"" single-story warehouse. Proposed 6,525 sqft, 4-story multi-unit residence with 2 off-street parking spaces.",TO DEMOLISH A VACANT STORAGE,Resident,574 Natoma St,37.778944,-122.409466
233,3756003,WSoMa,PL Approved,2012-12-06,2007-09-07,416.0,"Seven building mixed-use development for 416 rental dus in 384,000-sf, with 50K-sf retail, 8,700-sf industrial/studio, and 409-space below ground parking on site of SOMA busyard, block bounded by 8th Street, Harrison, Ringold, Gordon, totaling 634,000-sf.",,Mixres,350 08th St,37.774474,-122.40947
234,3756025,WSoMa,BP Filed,2007-05-31,2007-05-31,3.0,"Addition to existing 2-story, 2800 sqft, 20-feet in height single-family dwelling with 2-car garage. The addition would add a 3rd and 4th story resulting in a 3-unit, 5,300 sqft building with a 3-car parking garage.","ADD TWO FLOORS WITH TWO RESIDENTIAL-NEW UNITS ON 3RD AND 4TH FLOORS, REMODEL (E) 2ND FLOOR UNIT, REM",Resident,56 Ringold St,37.773976,-122.41046
235,3757045,WSoMa,BP Filed,2008-03-26,2008-03-26,0.0,,VERTICAL ADDITION OF 3RD FLOOR OFFICE SPACE AND MEZZANINE AND INTERIOR RENOVATION TO INCLUDE RESTROO,MIPS,44 Mclea Ct,37.772121,-122.408823
236,3746001,Rincon Hill,BP Filed,2012-07-12,2002-07-11,669.0,"Residential & Retail uses, and parking. Remove an existing US Postal Service surface parking lot and construct a new 38-40 story building with 806 residential units, ground floor retail, 806 off-street parking spaces for the residential use, 16 retail par",Multiple Permits,Resident,201 Folsom St,37.789186,-122.391823
237,3747320,Rincon Hill,PL Approved,2006-08-04,2006-04-18,432.0,"The proposal is to demolish the existing structure and construct a new structure that would include a 400-foot tower, 450 dwelling units, and 450 off-street parking spaces.",ERECT 41 STORIES 432 DWELLING RESIDENTIAL/PARKING BLDG.,Mixres,399 Fremont St,37.787361,-122.39218
238,3747012,Rincon Hill,BP ISSUED,2010-12-17,2004-07-08,69.0,CU to amend previous approval to rearrange the interior space to create more units.  VZ to reduce the required parking spaces from 70 to 51.  No change to buildig envelope.,PERMIT TO RECOMMENCE WORK ON PERMIT APPLICATIONS 9913300S AND 200507208180S - BUILD 69 UNIT RESIDENT,Resident,325 Fremont St,37.787693,-122.393033
239,4152016,Mission,CONSTRUCTION,2012-02-21,2007-09-19,2.0,Demolish existing single-story storage building built in 1922 and construct a 4-story 2-unit building.,ERECT 4 STORIES 2 DWELLING UNITS BLDG.,Resident,1076 Hampshire St,37.754966,-122.407686
240,4154001,Showpl/Potrero,CONSTRUCTION,2013-04-16,2008-09-18,0.0,"Rebuild of SF General Hospital (SFGH) to new requirements, part of IMP: new 419,070-sf acute acre hospital building, 105-ft in height, and reuse of 129,706-sf Building 5, equivalent to existing hospital use capacity, with no proposed parking.",,CIE,1001 Potrero Av,37.756762,-122.406606
241,4167004,Showpl/Potrero,PL Filed,2010-06-30,2010-06-30,1700.0,"Replace 606 units of public housing with 1,400-1,700 units of mixed-income, mixed-tenure housing, including 1-to1 replacement of public housing. Project will also include neighborhood serving retail, community facilities, parks and open space, and a new s",,Mixres,1 Turner Tr,37.756165,-122.395102
242,4172053,Central Waterfront,BP REINSTATED,2009-11-03,1999-02-11,8.0,,ERECT A FOUR STORY EIGHT UNIT RESIDENTIAL BLDG WITH COML,Resident,1179 Tennessee St,37.756751,-122.388969
243,3732008,East SoMa,CONSTRUCTION,2013-03-28,2008-01-24,182.0,"215,300-gsf 9-story 151-u residential mixed use, 151 parking, in two bldgs, requiring CU and Variance, otherwise conforming to RSD; LEED GOLD. Demo warehouse. 0.7 ac site.
",ERECT A MIXED USE RESIDENTIAL 182 UNITS BUILDING.,Mixres,260 05th St,37.780719,-122.40402
244,3732009,East SoMa,CONSTRUCTION,2013-04-24,2008-01-24,282.0,"396,000-gsf 9-story 300-u residential mixed use, 285 parking, in two bldgs, requiring CU and Variance, otherwise conforming to RSD; LEED GOLD. Remove surface parking, 2 billboards. 1.3 ac site.
",ERECT A MIXED USE RESIDENTIAL 282 UNITS BUILDING.,Mixres,900 Folsom St,37.780261,-122.403606
245,3732087,East SoMa,BP APPROVED,2013-04-19,2006-04-06,1.0,Change of use from industrial warehouse to residential single family dwelling with remodel and expansion of building.,VERTICAL ADDITION IN BUILDING. CONVERT PROPERTY TO RESIDENTIAL. REMODEL EXISTING 2 STORIES. ADD 1 NE,Resident,457 Tehama St,37.780007,-122.405495
246,3735063,TB Combo,PL Filed,2013-01-08,2007-11-30,0.0,"Amend previous Motion No. 18168 (Case No. 2006.1106X) to grant new exceptions related to bulk and separation of towers, in response to revised tower design/configuration. The amended project would not increase the gross floor area of the building. | The p","Construction of 25 stories office building with public assembly, food/beverage handling,retail sales",MIPS,222 02nd St,37.78645,-122.398069
247,3736074,TB Combo,PL Approved,2013-01-25,2012-10-15,350.0,"Residential tower project in TCDP Area, 350-du, 54-story bldg, including 250 valet parking spaces, bike storage, in 4-level subsurface garage, with four townhouses, two loading bays and garage entrance on Tehama, replacing surface parking operation.  Prev",,Resident,41 Tehama St,37.787269,-122.39631
248,3736114,TB Combo,BP ISSUED,2012-05-11,2008-01-02,0.0,"309/321 - Modification to previous approval (98.902X) of Foundry Square Building 3. Previous approval would allow the construction of 178,000 gsf office and 7,400 gsf of retail, with a height of 144'. Proposed modification would incorporate adjacent parce",DEMOLITION OF 1 STORY BUILDING (NIGHT CLUB).,MIPS,525 Howard St,37.78793,-122.396586
249,3747019,Rincon Hill,CONSTRUCTION,2013-04-23,2005-05-09,88.0,"The project involves new construction for an eight-story, 88-unit, residential building (132,000 gsf) with three levels of underground residential parking, to replace a one+ story commerical office building (30,417 gsf) in the Rincon area. ","TO DEMOLISH 2 STORIES WORK SHOP.
",Resident,333 Fremont St,37.787636,-122.392902
250,3748006,Rincon Hill,PL APPROVED,2006-06-08,2005-09-19,384.0,"Demolition of two existing building and construction of two residential buildings with up to 355 dwelling units, 2,335 GSF, and 336 off-street parking spaces.  ",ERECT 40 STORY RESIDENTIAL WITH 384 DWELLING UNITS,Mixres,340 Fremont St,37.787364,-122.39304
251,3749064,TB Combo,CONSTRUCTION,2013-04-25,2010-03-15,120.0,Housing for Chronically homeless,"NEW CONSTRUCTION - 8 stories of 120 DU's and future  supportive office(s), retail(s), restaurant(s) ",Resident,25 Essex St,37.78638,-122.395689
252,3765015,Rincon Hill,PL APPROVED,2005-08-16,2003-01-14,340.0,"The proposed project involves the demolition of the existing 75,816gsf Bank of America Clock Tower office building and the construction of a 534,500 gsf residential complex including 710 dwelling units and 246 off-street parking spaces.","TO ERECT 63 STORIES, 382 DWELLING UNITS, 2 LEVEL BASEMENTS OF B1 & B1, RESIDENTIAL CONDO.",Resident,425 First Street,37.786483,-122.392035
253,3776092,East SoMa,CONSTRUCTION,2013-03-22,2007-01-05,19.0,"The proposed project would demolish the existing 4,130 sq. ft. storage shed and construct a building consisting of 19 SRO units and five parking spaces. The proposed project would be approx. 16,074 sq. ft. five stories, and 50 feet in height. ",TO ERECT A NEW 5 STORY 19 DWELLING UNIT,Resident,246 Ritch St,37.780208,-122.39578
254,3783001,Showpl/Potrero,PL Approved,2013-01-31,2012-05-31,,"Demolish an existing building (Concourse Exhibit Hall) containing 125,000 square feet of space and 280 surface parking spaces and construct new buildings extending up to 70 feet in height and containing 560 dwellings, 438 off-street parking space, and 8,0",,Vacant,801 Brannan St,37.77295,-122.403224
255,3794014,East SoMa,PL Approved,2011-12-07,2011-02-09,,"The proposed project would involve the change of use of the project site from warehouse to restaurant and office use.  The change of use would be from the existing 22,884-sq. ft. industrial use to a 16,786-sq. ft. office use with 6,098 sf. ft. of ground f",,Mixed,111 Townsend St,37.780211,-122.390915
256,3794024,East SoMa,PL APPROVED,2011-04-07,2005-06-21,0.0,To demolish a non-contributing building in South End HD and construct new 131-room hotel with ground floor retail and no off-street parking. Seeking variances for parking and for restrictions on bay window dimensions (Sections 151 and 136).,,Visitor,144 King St,37.778734,-122.391289
257,3911001,Showpl/Potrero,PL Approved,2012-11-29,2005-08-17,212.0,"Demolish an existing building (Concourse Exhibit Hall) containing 125,000 square feet of space and 280 surface parking spaces and construct new buildings extending up to 70 feet in height and containing 560 dwellings, 438 off-street parking space, and 8,0","TO ERECT 7 STORIES, 212 DWELLING UNITS OF RESIDENTIAL / SHOWROOMS.",Resident,1 Henry Adams St,37.769666,-122.403866
258,3965001,Mission,BP Filed,2012-08-24,2008-10-09,12.0,"Retain the exisitng three-story, 34-foot, 5,625 sq. ft. retail and office building. Addition and new construction of 12 residential units over ground floor retail. The total project including the existing retail/office uses would be approximately 29,822 s","ERECT 4 STORIES, TYPE 5A (FULLY SPRINKLERED), 12 DWELLING UNITS BLDG.",Mixres,2401 16th St,37.765523,-122.410614
259,3973002C,Mission,PL Filed,2012-10-04,2012-10-04,84.0,"To construct a 6-story building over underground parking at 480 Potrero Avenue between Mariposa & 17th Street.  The new building will have 84 residential units, totaling approx. 85,490 sq. ft. including studio, one bedroom, two bedroom, and three bedroom ",,Resident,480 Potrero Av,37.763525,-122.407532
260,4009008A,Showpl/Potrero,CONSTRUCTION,2008-06-17,2006-02-02,2.0,Variance for reduced parking requirement,"1/F-REMOVE (E)UNPERMITTED ROOM,CLOSET & FULL BATH IN 1/F GARAGE.INFILL CANTILEVERED 2ND STORY @NORTHEAST,CORNER OF HOUSE.INFILL (E)LIGHTWELL @1ST STORY.ADD A LEGAL UNIT IN FORMER LOCATION OF UNPERMITTED WORK @REAR OF HOUSE 21'X20'=240SF.ADD 1 HR.RATED COR",Resident,585 Kansas St,37.76246,-122.403125
261,4102052,Showpl/Potrero,CONSTRUCTION,2010-09-09,2006-06-13,2.0,"Addition to existing 1,087 square foot single-family dwelling, adding one additional unit for a total of 3,000 square feet and 2-units.","NEW 2 CAR GARAGE & STUDIO UNIT 1ST FLOOR, 2 NEW 4 BEDRM RESIDENCES 2ND & 3RD FLS, NEW ROOF DECK",Resident,585 Texas St,37.759002,-122.395066
262,4219003,Showpl/Potrero,CONSTRUCTION,2008-02-15,2004-12-08,1.0,,"TO ERECT A NEW 3 STORY AND PENTHOUSE, WITH 2 DWELLING UNITS.",Resident,1028 Wisconsin St,37.754486,-122.398857
263,4228158,Central Waterfront,CONSTRUCTION,2013-03-28,2002-12-24,81.0,"The proposed project involves the demolition of the existing 14,800 gsf warehouse and construction of a 5 story 166,590 gsf residential building, containing up to 81 dwelling units, 5,000 gsf of retail space and 164 off-street parking space.  PUD exceptio",ERECT FIVE STORY RESIDENTIAL & RETAIL & WAREHOUSE,Mixres,1301 Indiana St,37.753914,-122.390975
264,5336048,Other S Bayshore,BP Filed,2007-01-17,2007-01-17,1.0,,TO ERECT 1 DWELLING UNIT WITH 3 STORY NEW BUILDING,Resident,1911 Quesada Av,37.735792000000004,-122.396076
265,5355010,Other S Bayshore,CONSTRUCTION,2013-02-04,2008-08-13,1.0,,TO ERECT A NEW 2 STORY SINGLE FAMILY DWELLING UNIT,Resident,38 Flora St,37.732057,-122.394453
266,5379029,Other S Bayshore,CONSTRUCTION,2012-07-27,2007-12-04,1.0,,CONSTRUCTION OF THREE STORY SINGLE FAMILY DWELLING ON VACANT LOT.,Resident,55 Waterville St,37.735288,-122.402582
267,5405023,Other S Bayshore,CONSTRUCTION,2013-04-09,2007-10-10,1.0,,Construct a two story single family dwelling,Resident,157 Apollo St,37.730762,-122.398665
268,5476009,"BVHP Area A,B",CONSTRUCTION,2013-04-17,2009-04-02,73.0,"100 %  Affordable DUs (42,238 square feet) and 21 off-street parking spaces.  New building would be 40 feet tall.   Demolition of 43 residential hotel rooms and construction of 25 new dwelling units and 55 group housing units.  ","ERECT 73 DWELLING UNITS, 5 STORIES RESIDENTIAL/PARKING BUILDING.",Resident,6600 Third Street,37.718831,-122.397787
269,5943008,"South Central, Other",BP ISSUED,2011-06-06,2007-11-07,2.0,"The proposal is to demolish a single-family residence, constructed in 1906, split the lot into two lots @3,000 square feet each, and construct a single-family dwelling on each newly created lot.   This DR is for the new construction of the southern buildi",CONSTRUCT 3 STORY SINGLE FAMILY DWELLING,Mixres,268 Madison St,37.725758,-122.422661
270,6202046,"South Central, Other",CONSTRUCTION,2013-02-06,2006-12-20,1.0,Proposing construction of a single-family dwelling unit on a vacant lot in a RH-1 (40-X) Height and Bulk District.,"TO ERECT A NEW 3 STORY, 1 DWELLING RESIDENTIAL UNIT",Resident,169 Delta St,37.717372,-122.407462
271,5721077,Bernal Heights,BP Filed,2013-03-29,2013-03-29,2.0,,VERTICAL ADDITION AND REMODEL OF EXISTING GARAGE AND STORAGE AREA AT FRONT OF PROPERTY INTO RESIDENT,Vacant,349 Richland Av,37.735821,-122.418467
272,6154012,"South Central, Other",CONSTRUCTION,2010-05-04,2006-06-21,1.0,"2-lot subdivision, alteration of an existing SFD on the resulting 29-ft-wide lot and construction of a new SFD on the 21-ft-wide lot, requiring a CU for the new building.","TO ERECT 1 FAMILY DWELLING (BUILDING ""B"")",Resident,853 Goettingen St,37.72147,-122.404141
273,6244036,"South Central, Other",BP REINSTATED,2012-02-29,2007-03-02,1.0,Demolish 1-story single-family residential building straddled in the middle of two lots and construct two single-family residential buildings on each lot.,"DEMOLISH 2 STORIES, 1 DWELLING UNIT, 1 BASEMENT, (200703025279)

RESIDENTIAL BUILDING.ERECT 3 STORIES, 1 BASEMENT, 1 DWELLING UNIT BLDG.",Resident,469 Raymond Av,37.714637,-122.412886
274,6345007,"South Central, Other",CONSTRUCTION,2013-04-16,2006-11-08,1.0,NEW CONSTSRUCTION OF SINGLE-FAMILY DWELLING.,"ERECT 2 STORIES, 1 UNIT, 1 BASEMENT NEW BUILDING.",Resident,626 Paris St,37.718855,-122.437309
275,6520036,Mission,CONSTRUCTION,2013-04-03,2007-11-13,9.0,"Demolish existing two-story parking garage, perviously used as auto repair shop and construct 12 dwelling units over ground floor commercial in a three-story building with 12 parking spaces. The proposed structure would be 40 feet in height and 24,291 sq.",2 story vertical addition. 6 residential unit addition. EXTENSION OF EXISTING CODE COMPLIANT STAIRWA,Mixres,3135 24th St,37.752336,-122.414797
276,8711014,"South of Market, Other",CONSTRUCTION,2013-04-26,2010-12-03,150.0,,ERECT 6 STORIES OF 150 DWELLING UNIT.,Resident,1000 Fourth Street (block 13 East),37.77337,-122.387329
277,9900015,Northeast,PL Filed,2009-08-11,2009-05-27,0.0,"The project is the Exploratorium Relocation to Piers 15/17.  The Exploratorium, a not-for-profit organization that provides science, are, and human perception exhibits, proposes to relocate its operations from the Palace of Fine Arts, at 3601 Lyon Street ",,CIE,Pier 15,37.801185,-122.397874
278,0501023,Northeast,CONSTRUCTION,2013-04-09,2009-06-09,2.0,Demolition of rear building and construction of 2-unit building.,CONSTRUCTION OF FOUR-STORY WOOD FRAME TWO FAMILY DWELLING.,Resident,1269 Lombard St,37.801478,-122.422287
279,6575001,Bernal Heights,PL Filed,2010-06-10,2010-11-10,0.0,"Construction of a new 145,000 sq.ft. St. Luke's Hospital at a height of 114 feet (6 stories); demolition of the existing St. Luke's Hospital after the new hospital is operational, and construction of a new medical office building/future expansion building",,Mixed,3615 Cesar Chavez St,37.747692,-122.420936
280,7148040,"Ingleside, Other",BP Filed,2012-11-28,2010-01-28,28.0,"Vacant former ROW parcel (.98 ac) for 28 SFH with drive aisle yard, 41,320-gsf, 44 parking.",Multiple Permits on formerly vacant right of way next to 280,Resident,One Capitol Av,37.710873,-122.459069
281,0694005,Downtown,BP Filed,2012-04-20,2010-06-10,,"Demolition of the exisitng Cathedral Hill hotel and office building and construction of a 15 story, 265-foot tall hospital on the entire block bounded by Franklin Street, Post STreet, Van Ness Avenue, and Geary Blvd.

Demolition of 7 existing properties a",TO DEMOLISH 2 STORY RETAIL BUILDING.,Mixed,1100 Van Ness Ave,37.785753,-122.421333
282,2657004,Central,CONSTRUCTION,2013-03-12,2009-07-14,1.0,,To erect a new single family dwelling,Resident,134 Ord St,37.7615761,-122.4401327
283,3638018,Mission,BP ISSUED,2012-10-19,2009-04-28,3.0,"Vertical addition adding one new dwelling unit, roof deck, and interior changes.",ADD ONE STORY ADDITION TO (E) 3-STORY BUILDING. ADD ONE ADDITIONAL UNIT.  3 STORY HORIZONTAL ADDITION AT REAR.  2 STORY HORIZONTAL ADDITION IN THE FRONT AT 2ND AND 3RD FLOOR  FOR NEW  BAY WINDOWS. NEW ROOF DECK.,Resident,3120 23rd St,37.754244,-122.414768
284,1260035,Buena Vista,CONSTRUCTION,2013-03-26,2010-03-02,2.0,"Vacant lot and new construction of a 4- story, 2-unit residential building with 2 parking spaces.","TO ERECT 4 STORIES, 2 UNITS RESIDENTIAL BUILDING.",Resident,35 Lloyd St,37.769646,-122.435672
285,4058008,Central Waterfront,CONSTRUCTION,2013-04-30,2010-12-09,16.0,,"ERECT 5 STORIES, 16 DWELLING UNITS TYPE 1 & 5, COMMERCIAL & RESIDENTIAL NEW BUILDING.",Mixres,616 20th St,37.760768,-122.387975
286,3568068,Mission,CONSTRUCTION,2013-02-25,2008-11-21,3.0,,"TO ERECT 3 UNITS, 4 STORIES RESIDENTIAL BUILDING.",Resident,141 Albion St,37.764137268066406,-122.42247009277344
287,4045002,Central Waterfront,CONSTRUCTION,2013-04-30,2010-02-12,106.0,"Proposed project would demolish the existing commercial fueling facility and construct 70 dwelling units and 52 parking spaces. The new structure would be approximately 66 feet in height, six stories, and would total approximately 62,516 sq. ft. ","ERECT 106 DWELLING UNITS, 6 STORIES, RESIDENTIAL/PARKING BUILDING.",Resident,740 Illinois St And 2121 Third St,37.762685,-122.388248
288,9900030,"South of Market, Other",PL Filed,2010-06-24,2010-06-24,0.0,"The America's Cup 34 Project would include (Option A) 14 team bases, 38,000 sf of hospitality/retail/concession space, 308,000 sf of endlosed team bases, 147,000 sf of unenclosed team bases, and approximately 115,688 sf of open space, for a total of 608,6",,Retail/Ent,America's Cup Pier 30/32 Sw 330,37.78625,-122.38538
289,0123002,Northeast,CONSTRUCTION,2013-04-24,2010-03-10,7.0,"Convert parking garage to a three-story over basement, seven-unit residential condo project with 15 parking spaces.",SITE PERMIT - CHANGE OF USE FROM PARKING GARAGE TO 7 RESIDENTIAL UNITS WITH PARKING AND A GROUND FLO,Resident,1945 Hyde St,37.798827,-122.419267
290,1615003,Richmond,CONSTRUCTION,2012-11-30,2010-04-15,2.0,,Add 820 Sq.ft. to lower level to create 2nd. unit. Add 470 sq.ft. to main level. Add 690 sq.ft. to u,Resident,727 29th Av,37.775539,-122.489031
291,6349021,"South Central, Other",BP APPROVED,2013-01-02,2010-09-07,1.0,Demolish existing garden shack and construct new single-family residence.,"TO ERECT 3 STORIES, SINGLE FAMILY RESIDENCE.",Resident,717 Paris St,37.717439,-122.437802
292,3518004,WSoMa,CONSTRUCTION,2012-03-20,2010-09-14,1.0,Conversion of existing commercial building to residential. ,INTERIOR RENOV W/EXITING SHELL. INCL 730 SF. ON (N)  OUTDOOR OPEN SPACE WITHIN 2 (N) COURTYARDS. SUB,Mixres,234 09th St,37.7744587,-122.4126543
293,3555056,Mission,CONSTRUCTION,2013-04-03,2010-09-28,52.0,,SEISMIC RETROFIT & BLDG REHABILITATION. LIFE SAFETY IMPROVEMENTS INCLUDING 2 ENCLOSED STAIRWAYS & LI,Resident,1731 15th St,37.766245,-122.423076
294,3702052,Downtown,CONSTRUCTION,2013-04-09,2010-12-16,418.0,,ERECT 22 STORIES OF 418 DWELLING UNIT WITH COMMERCIAL,Resident,1190 Mission St,37.7776201,-122.4129846
295,4145029,Mission,BP Filed,2010-10-18,2010-10-18,2.0,,"SECONDARY LIVING UNIT ON GROUND FLOOR. 1140 SQFT. ZONED FOR MULTIFAMILY. INCLUDES (N) BEDROOM, (N) B",Resident,915 Florida St,37.7568569,-122.410183
296,6503020,Central,CONSTRUCTION,2013-04-12,2010-12-09,2.0,Off street parking variance to add a second dwelling unit without providing a required off-street parking space,DEMO EXISTING REAR YARD ADDITION. BUILD NEW REAR YARD ADDITION. ADD 2ND DWELLING UNIT @ GROUND FLOOR,Resident,461 Hoffman Av,37.7499449,-122.440202
297,6090004,"South Central, Other",BP Filed,2010-10-07,2010-10-07,1.0,,"TO ERECT 3 STORIES, SINGLE FAMILY BUILDING.",Resident,524 Vienna St,37.720141,-122.431
298,6959030,"South Central, Other",CONSTRUCTION,2013-04-16,2010-12-10,1.0,,"TO ERECT 2 STORIES, SINGLE FAMILY DWELLING.",Resident,1927 Alemany Bl,37.720949,-122.438681
299,1732043,Inner Sunset,PL Filed,2011-02-03,2011-02-03,,Demolish exiting service station building of approx. 2350 square feet and reconstruct a new building of approx. 3700 square foot building containing a convenience store and automatic car wash. Alterations to the existing pumps and tanks is not proposed. C,,Retail/Ent,1759 Lincoln Wy,37.765199,-122.476889
300,3733008,"South of Market, Other",PL Filed,2011-01-14,2011-01-14,,"The project proposes to demolish an existing three-story office building and construct a hotel building with 215-guest bedrooms that would be 93,460 square-feet, and 119-feet tall. ",,Visitor,250 4th St,37.782449,-122.401973
301,2802006,Central,CONSTRUCTION,2012-11-13,2011-06-23,1.0,Exposure and rea yard variances for the addition of a second dwelling unit in a detached structure at the front of the property,"ERECT TYPE 5, 3 STORIES, 1 DWELLING UNIT W/ 1 BASEMENT NEW BUILDING.",Resident,680 Douglass St,37.752942,-122.438935
302,6706043,"Ingleside, Other",CONSTRUCTION,2013-03-28,2011-05-24,1.0,,TO ERECT 3 STORIES SINGLE FAMILY DWELLING.,Resident,701 Congo St,37.7354282,-122.4419165
303,8711023,Mission Bay,CONSTRUCTION,2013-04-24,2011-04-22,315.0,,"TO ERECT 8 STORIES, 315 UNITS RESIDENTIAL, RETAIL, PARKING BUILDING.",Resident,185 Channel St,37.7745464,-122.3899246
304,0973031,Richmond,CONSTRUCTION,2013-04-09,2011-04-01,1.0,,"ERECT 3 STORIES, 1 BASEMENT, SINGLE FAMILY UNIT BUILDING.",Resident,3210 Jackson St,37.7907811,-122.4479479
305,1405045,Richmond,CONSTRUCTION,2013-04-12,2011-06-23,2.0,,CONVERT SINGLE DWELLING UNIT INTO 2 UNITS RESIDENTIAL W/ ADDITION TO REAR OF BUILDING INCLUDING NEW ,Resident,322 29th Av,37.783219,-122.488927
306,6549031,Central,CONSTRUCTION,2013-04-26,2011-05-06,2.0,,HORIZONTAL ADDITION. ADD SECOND UNIT (STUDIO APT.). FRONT ADDITION & REMODEL @ 2ND FL. REPLACEMENT O,Resident,3977 25th St,37.749752,-122.428939
307,1453013,Richmond,BP Filed,2011-09-26,2011-09-26,2.0,,REMODEL EXISTING 3-STORY SINGLE FAMILY HOUSE & HORIZONAL EXT 3-STORY TO THE REAR PLUS A 4TH FLOOR PE,Resident,363 21st Av,37.781028,-122.480834
308,1933041,Inner Sunset,CONSTRUCTION,2013-01-18,2011-09-16,2.0,This proposal is to construct a one-story vertical addition and horizontal additions at the front and rear of the building in zoning district RH-2. A second dwelling unit would also be added to the building and the front facade would be altered.  The proj,CONVERSION OF A SFD TO ADUPLEX. ELECTRICAL & PLUMBING UNDER SEPARATE PERMITS.,Resident,1622 11th Av,37.757884,-122.467701
309,2700056,Central,BP Filed,2011-09-21,2011-09-21,2.0,,ADD NEW DWELLING UNIT. NEW GARAGE @ STREET LEVEL. NEW DORMER & MASTER BEDROOM & BATH. INTERIOR REMOD,Resident,55 Caselli Av,37.7597273,-122.4403136
310,3509043,Downtown,BP Filed,2013-01-31,2011-09-29,160.0,"To demolish existing building and construct a nex mixed-use building of 120 feet in height, 11 stories, with 180 dwelling units, over 4,400 sf ground level commercial and a basement in a C-3-S zoning district. The project would provide one car-share space","TO ERECT 160 UNITS, 11 STORIES WITH BASEMENT MIX USE BUILDING.",Mixres,1321 Mission Street,37.7759048,-122.4149665
311,6602010,Central,CONSTRUCTION,2013-04-01,2011-09-09,2.0,Rear yard and non-complying building variances.,CREATE (N) STUDIO APARTMENT WITH (E) BUILDING FOORPRINT UNDER (E) SINGLE FAMILY RESIDENCE. PROVIDE (,Resident,322 28th St,37.74539,-122.429689
312,3799001,Showpl/Potrero,PL Approved,2012-05-10,2011-10-13,,"Conversion of basement level into office (approx. 72,600 sf of 288,458 gsf). Currently, the building possesses 215,858 sf of office use. ",,MIPS,601 Townsend St,37.7713728,-122.4020173
313,6540021,Central,BP ISSUED,2013-02-14,2011-12-12,2.0,,RENOVATE (E) 2-STORY SF RESIDENCE TO INCL A HORIZONTAL & VERTICAL ADDITION AND (N) 2ND UNIT INCL DEM,Resident,4372 25th St,37.749709,-122.437739
314,0026030,Northeast,BP ISSUED,2012-09-06,2011-11-07,3.0,,ERECT NEW 4-STORY 3 DWELLING UNITS CONDO.,Resident,827 North Point St,37.8055904,-122.4208909
315,2864029A,Inner Sunset,CONSTRUCTION,2013-03-27,2011-10-03,1.0,,"TO ERECT 3 STORIES, SINGLE FAMILY RESIDENT BUILDING.",Resident,273 Magellan Av,37.746607,-122.460992
316,4829007,"BVHP Area A,B",BP Filed,2011-12-08,2011-12-08,,,"ERECT 1 STORY, TYPE 5, WAREHOUSE BUILDING.",PDR,1560 Wallace Av,37.7271044,-122.390421
317,1731014,Outer Sunset,CONSTRUCTION,2013-04-09,2012-01-18,2.0,,"SIDE ADDITION. ADD PARKING, REAR STAIR, NEW DORMER. INTERIOR REMODEL. REPLACE ALL WALL FINISH, FLOOR",Resident,1269 19th Av,37.7642202,-122.4774198
318,1893038,Outer Sunset,CONSTRUCTION,2013-04-04,2012-01-11,1.0,,"ERECT 2 STORIES, TYPE 5, 1 DWELLING UNIT FRONT BUILDING.",Resident,1530 48th Av,37.7578522,-122.50778
319,2688072,Central,PL Filed,2012-02-19,2012-02-19,2.0,"Lot line adjustment to divide one 7,500 sq.ft. lot into a 4,000 sq.ft. and 3,000 sq.ft. lot. Vertical and Horizontal Addition to existing single family residence of 1,300sf, resulting in a 4,200 sf single-family residence. New construction of a 4,000 sf s",,Resident,89 Belgrave Av,37.759361,-122.449717
320,2716033,Central,PL Filed,2012-06-11,2012-03-27,1.0,Convert vacant lot to a 3 story over garage/basement single family home,ERECT 3-STORY NEW BUILDING TYPE V SINGLE FAMILY RESIDENCE.,Resident,135 Yukon St,37.757357,-122.442274
321,5350042,Other S Bayshore,PL Approved,,2012-03-06,,Construction of a new warehouse on an empty lot.,,PDR,2243 Shafter Av,37.737514,-122.402673
322,7552003,Central,CONSTRUCTION,2013-04-15,2012-02-29,1.0,To convert a vacant lot into a three-story over garage single family home,ERECT 3 STORIES OF 1 DWELLING UNIT FOR TYPE 5 CONSTRUCTION.,Resident,30 Conrad St,37.737845,-122.436477
323,0473008,Marina,BP ISSUED,2013-03-05,2012-03-26,3.0,,REAR GROUND FLOOR ADDITION. TO ACCOMODATE NEW GROUND FLOOR UNIT.RENOVATION OF 2ND & 3RD FLOOR UNITS.,Resident,1326 Francisco St,37.8030012,-122.4270973
324,3576039,Mission,BP Filed,2012-02-17,2012-02-17,3.0,,CREATE A 620 SQ FT 3RD UNIT AT 1ST FLOOR INCLUSIVE OF A 1 STORY ADDITION OF 130 SQ FT WITH ROOF DECK,Resident,35 Lexington St,37.762201,-122.421077
325,6656005,Central,BP ISSUED,2012-08-13,2012-02-07,2.0,,"Comply with complaint #200998287 & 201280554, No n.o.v. to legalize 2nd. unit @ ground floor.",Resident,26 Chenery St,37.741454,-122.426048
326,0141008,Northeast,PL Approved,2012-11-05,2012-02-29,2.0,Vertical addition with two new residental units,,Mixres,850 Battery St,37.7994579,-122.4011063
327,0814020,Market Octavia,BP ISSUED,2012-12-31,2012-03-30,399.0,"100 Van Ness is an existing 29 story office building that is currently 96% vacant.  The proposal is to change the use from office to multi-family residential, renovate the interior of the building to create 399 multi-family residential units, and re-skin ",CONVERT (E) OFFICE BUILDING INT 399 RESIDENTIAL APARTMENTS GROUND FLOOR RETAIL AND ROOF DECK. MAINTA,Mixres,100 Van Ness Av,37.7764279,-122.4194191
328,3980007,Showpl/Potrero,CONSTRUCTION,2013-04-09,2012-02-15,20.0,,"ERECT 4-STORY TYPE V BUILDING. RESIDENTIAL, RETAIL, PARKING.",Resident,1717 17th St,37.7647485,-122.4007389
329,1564013,Richmond,PL Approved,2013-02-13,2012-04-10,2.0,"Add an vertical addition, convert existing attic to new 3rd story",,Resident,571 21st Av,37.7771029,-122.480546
330,2393040,Outer Sunset,BP Filed,2012-06-20,2012-06-20,16.0,,"TO ERECT 5 STORIES, 16 UNITS, MIXED USE BUILDING.",Resident,2255 Taraval St,37.742153,-122.490455
331,3784015,WSoMa,PL Filed,2012-04-26,2012-04-26,,"Demolish existing structure adn construct new 5,500sf or retail space.\",,Retail/Ent,603 7th Street,37.773029,-122.402848
332,4172006,Central Waterfront,PL Approved,2012-10-26,2012-06-28,1.0,Variance request to section 134 ,,Resident,2538 03rd St,37.7573928,-122.3884388
333,6527019,Mission,BP Filed,2012-07-06,2012-05-24,2.0,"Variance to the Rear Yard Requirement (134), Exposure (140), Exposure of the open space (135) and required mimimum dwelling unit mix (207.6).","TO ERECT 2-STORY, TYPE V, 2 UNITS RESIDENTIAL BUILDING.",Resident,1069 Capp St,37.7495703,-122.4170629
334,0473015A,Marina,BP ISSUED,2013-03-15,2012-04-24,3.0,,ADD (N) 3RD UNIT AT (E) UNOCCUPIED 1ST FL AREA & ADDING A REAR HORIZONAL ADDITION AT LIVING & DINING,Resident,1265 Bay St,37.8038411,-122.4278949
335,1150007,Western Addition,BP Filed,2012-06-15,2012-06-15,3.0,,COMPLY WITH  N.O.V.#201288233. Legalize 3rd. unit @ ground floor.,Resident,809 Lyon St,37.7784642,-122.4435763
336,1659030,Richmond,BP ISSUED,2013-01-28,2012-04-05,2.0,,CONSTRUCT 3-STORY REAR HORIZONTAL ADDITION FOR NEW LIVING SPACE W/ 2-LEVEL DECK. CONVERT (E) SINGLE ,Resident,764 17th Av,37.773671,-122.475344
337,4264007,Showpl/Potrero,BP ISSUED,2013-03-04,2012-05-09,3.0,,ADD 1 DWELLING UNIT. NEW REAR BUILDING WALL. VERTICAL & HORIZONTAL ADDITION. NO CHANGE TO FRON (EAST,Resident,1368 Utah St,37.7521714,-122.4052431
338,6472007,"South Central, Other",BP Filed,2012-08-29,2012-08-29,1.0,,ERECT 2-STORY TYPE V SINGLE FAMILY DWELLING BUILDING,Resident,850 Brunswick St,37.708404,-122.451291
339,0346003A,Downtown,PL Approved,2012-03-27,2012-08-15,85.0,The existing post office is scheduled for closure.  The proposed development would demolish the existing one-story building (built in 1960) and rebuild ground floor retail with residential units above.,,Mixres,101 Hyde St,37.781804,-122.415897
340,0351001,Downtown,PL Filed,2012-09-18,2012-09-18,,Renovation of existing Hotel - interior renovation and top floor addition,,Visitor,1100 Market St,37.7807074,-122.4125528
341,1088022,Western Addition,BP Filed,2012-07-24,2012-07-24,2.0,Convert a 2-story single family dwelling to a 2-unit dwelling with a 2 story vertical additions,3RD + 4TH FLOOR ADDITION. INTERIOR REMODEL. CONVERT SINGLE FAMILY HOME INTO TWO UNIT BUILDING. FIRE ,Resident,758 Spruce St,37.780951,-122.452699
342,1332049,Richmond,PL Approved,2013-01-16,2012-08-14,2.0,Building single family cottage in the required rear yard,,Resident,126 27th Av,37.7869389,-122.487055
343,3533001,Market Octavia,BP Filed,2012-08-28,2012-08-17,7.0,Variance request to reconstruct residential/commercial structure with an additional story in height requiring a variance to the rear yard and open space requirements,4TH FLOOR VERTICAL ADDITION OF 2 DWELLING UNITS.,Mixres,101-109 Duboce Avenue,37.7697405,-122.4226758
344,3774026,East SoMa,PL Filed,2012-08-28,2012-08-28,,"Demolition of existing building on lot and construction of a new six-story commercial office building containing approximately 189,000 square feet of office uses and an approximately 13,000 square foot sub-grade parking garage containing 16 off-street par",,MIPS,270 Brannan St,37.7829347,-122.3917304
345,5963042,"South Central, Other",BP Filed,2012-07-20,2012-07-20,1.0,,"ERECT 3 STORIES, TYPE 5, SINGLE FAMILY DWELLING BUILDING.",Resident,35 La Grande Av,37.7246753,-122.4237286
