,BLKLOT,NAMEADDR,BESTDATE,BESTSTAT,NEIGHBORHOOD,Latitude,Longitude
0,3965021,2435-2445 16TH ST,03/25/2015,PL FILED,Mission,37.7653208742,-122.411119977
1,2628032,271 UPPER TR,03/20/2015,BP FILED,Castro/Upper Market,37.7622313439,-122.445431847
2,1505014,579 39TH AV,07/15/2013,BP FILED,Outer Richmond,37.7778804714,-122.499952206
3,4757047,1167 PALOU AV,10/28/2014,BP FILED,Bayview,37.7291861792,-122.382994976
4,1809028,3945 JUDAH ST,12/31/2014,BP FILED,Outer Sunset,37.7603061584,-122.5045591
5,1055013,726 PRESIDIO AV,11/12/2014,BP FILED,Western Addition,37.7849923986,-122.445930186
6,3532048,44 WOODWARD ST,10/10/2014,BP FILED,Mission,37.76914108,-122.421048458
7,3594023,835 SOUTH VAN NESS AV,12/11/2014,BP FILED,Mission,37.7598043584,-122.416615131
8,3725093,925 MISSION ST,05/15/2015,PL FILED,South of Market,37.7821536544,-122.406601109
9,3737012,245 01ST ST,12/23/2014,BP FILED,Financial District,37.787900112,-122.394594038
10,3506002,1500-1580 MISSION ST,12/18/2014,PL FILED,South of Market,37.774319514,-122.41802054
11,3736120,500 FOLSOM ST,03/11/2015,BP FILED,Financial District,37.7872035554,-122.39510677
12,5386001,2006 KEITH ST,12/31/2010,BP FILED,Bayview,37.7286919034,-122.390309553
13,4913011,2889 JENNINGS ST,10/10/2014,BP FILED,Bayview,37.7221253364,-122.392796386
14,3546026,449 14th street,03/17/2014,BP FILED,Mission,37.7678088013,-122.423253642
15,3514043,1601 MISSION ST,02/11/2015,PL FILED,South of Market,37.7720407322,-122.418763248
16,814001,150 VAN NESS AVE,04/23/2014,PL FILED,Downtown/Civic Center,37.7773006581,-122.418295445
17,3736078A,57 TEHAMA ST,04/30/2014,BP FILED,Financial District,37.7873947486,-122.396093313
18,3553052,1979 MISSION ST,12/17/2013,BP FILED,Mission,37.7655813755,-122.419123068
19,4105009,800 INDIANA STREET,10/10/2013,PL FILED,Potrero Hill,37.7591964033,-122.391729047
20,342001,950 MARKET ST,11/19/2013,PL FILED,Downtown/Civic Center,37.7831754339,-122.409568316
21,350003,1066 MARKET ST,06/18/2014,PL FILED,Downtown/Civic Center,37.7817990077,-122.41174159
22,3708006,50 01ST ST,06/04/2014,PL FILED,Financial District,37.7899046877,-122.398320801
23,3954016,1301 16TH STREET,09/16/2013,PL FILED,Potrero Hill,37.7658451446,-122.400239355
24,647007,1634-1690 PINE ST,07/17/2012,PL FILED,Western Addition,37.7895929753,-122.422950809
25,3116006A,410 HEARST AV,10/03/2014,BP FILED,Outer Mission,37.730862401,-122.446986558
26,4167011,1395 22nd St,01/13/2014,PL FILED,Potrero Hill,37.7562034233,-122.393593669
27,3547001,1800 MISSION ST,06/10/2004,PL FILED,Mission,37.7678171959,-122.420575335
28,3703059,1095 MARKET ST,09/11/2014,BP FILED,South of Market,37.7803286884,-122.412013611
29,3949001,1200 17TH STREET,04/04/2012,PL FILED,Potrero Hill,37.7661247079,-122.395473061
30,3741031,75 HOWARD ST,01/13/2012,PL FILED,Financial District,37.7915578785,-122.391671499
31,6604038,647 DUNCAN ST,07/18/2014,BP FILED,Noe Valley,37.7454018979,-122.434331477
32,350002,1028 MARKET ST,04/29/2014,PL FILED,Downtown/Civic Center,37.7818834819,-122.411323334
33,836002,1540 MARKET ST,02/27/2009,PL FILED,Downtown/Civic Center,37.7752149608,-122.41960726
34,4022001,2070 BRYANT ST,06/12/2014,PL FILED,Mission,37.761499537,-122.410581329
35,3702047,1125 MARKET ST,12/18/2013,PL FILED,South of Market,37.7797562718,-122.412736198
36,244001,950 MASON STREET,02/11/2009,PL FILED,Nob Hill,37.7924253522,-122.410092549
37,3953002,88 ARKANSAS ST,03/25/2015,PL FILED,Potrero Hill,37.7653561316,-122.399047724
38,6571001,1515 SOUTH VAN NESS AVENUE,01/28/2015,PL FILED,Mission,37.7490274546,-122.414995086
39,3730015,1140 FOLSOM STREET,10/16/2013,PL FILED,South of Market,37.7762383802,-122.408952216
40,3728019,1298 HOWARD STREET,03/19/2014,PL FILED,South of Market,37.7756285786,-122.412778676
41,3703062,1075 MARKET ST,02/12/2014,PL FILED,South of Market,37.7806442154,-122.411615202
42,3747012,325 FREMONT ST,07/17/2014,PL APPROVED,South of Market,37.7877714372,-122.392946601
43,3753148,377 06TH ST,08/29/2014,PL APPROVED,South of Market,37.7776640872,-122.404157099
44,74410,950 GOUGH ST,05/11/2015,PL FILED,Downtown/Civic Center,37.7822225671,-122.423765945
45,3753106,923 FOLSOM STREET,05/12/2015,BP ISSUED,South of Market,37.7796093041,-122.403380781
46,831024,PARCEL O,03/25/2015,PL FILED,Western Addition,37.7753559271,-122.425374345
47,318020,651 GEARY ST,02/25/2013,PL FILED,Downtown/Civic Center,37.7863441519,-122.413955468
48,4060001,888 TENNESSEE ST,10/16/2013,PL APPROVED,Potrero Hill,37.7607662646,-122.389984667
49,836007,1554 MARKET ST,11/22/2013,BP FILED,Downtown/Civic Center,37.7749804242,-122.420196107
50,836006,1550 MARKET ST,06/19/2013,PL FILED,Downtown/Civic Center,37.7748892682,-122.420080838
51,4045003,2171 THIRD ST,06/21/2013,BP FILED,Potrero Hill,37.7623405114,-122.388255218
52,3639006,2675 FOLSOM ST,04/30/2015,PL FILED,Mission,37.7545945828,-122.413811585
53,855010,1740 MARKET ST,01/29/2015,PL FILED,Western Addition,37.7725441778,-122.423102028
54,0346003A,101 HYDE ST,06/27/2013,BP FILED,Downtown/Civic Center,37.7818037377,-122.415896548
55,287013,272 SUTTER ST,10/14/2014,PL FILED,Financial District,37.7899567523,-122.405082361
56,3751029,750 HARRISON ST,09/17/2013,PL FILED,South of Market,37.7817807119,-122.398675748
57,6614035,255 28TH ST,03/16/2015,BP FILED,Noe Valley,37.7449800741,-122.428037039
58,3510028,949 NATOMA ST,10/10/2014,BP FILED,South of Market,37.7739085685,-122.415357833
59,4044013,777 TENNESSEE STREET,05/30/2013,PL FILED,Potrero Hill,37.7620267657,-122.389324477
60,4591C032,576 HUDSON AV,01/14/2015,BP FILED,Bayview,37.7293040117,-122.368899993
61,3519063,1335 FOLSOM ST,12/03/2013,PL FILED,South of Market,37.7731843927,-122.41191612
62,0283004A,620 SUTTER ST,01/23/2013,BP FILED,Downtown/Civic Center,37.7892408627,-122.410730295
63,936014,2444 LOMBARD ST,03/25/2015,PL FILED,Marina,37.7994135743,-122.442052407
64,766010,555 GOLDEN GATE AV,10/01/2014,PL FILED,Downtown/Civic Center,37.7808756421,-122.419596941
65,2754052,162 GRAND VIEW AV,10/22/2014,BP FILED,Noe Valley,37.7555053505,-122.440615127
66,744002,807 FRANKLIN ST,04/08/2014,PL FILED,Downtown/Civic Center,37.7821201293,-122.422710863
67,4591D131,1 EARL ST,12/16/2014,BP FILED,Bayview,37.7276284882,-122.374979467
68,3730004,230 07TH ST,07/30/2014,PL FILED,South of Market,37.7772953003,-122.409123493
69,3730023,1174 FOLSOM ST,07/29/2013,PL FILED,South of Market,37.7757141171,-122.409743195
70,4211001,1100 POTRERO AV,05/02/2013,BP FILED,Mission,37.7544079493,-122.406810902
71,4108017,901 TENNESSEE STREET,09/12/2013,PL FILED,Potrero Hill,37.7602272103,-122.389153807
72,311016,690 MARKET ST,12/19/2014,BP FILED,Financial District,37.7882479786,-122.403232213
73,4059001C,2230 3RD STREET,03/06/2014,PL FILED,Potrero Hill,37.7612470299,-122.388940698
74,3644021,1278 - 1298 VALENCIA ST,02/19/2015,BP FILED,Mission,37.7523096416,-122.420977366
75,3732028,980 FOLSOM ST,12/29/2014,BP FILED,South of Market,37.7790166315,-122.405364111
76,5719023,42 LEESE ST,03/30/2007,BP FILED,Bernal Heights,37.7364643803,-122.423740066
77,3518020,241 10TH ST,01/15/2015,PL FILED,South of Market,37.7736498631,-122.413437181
78,5992A060,495 CAMBRIDGE ST,05/15/2014,PL FILED,Excelsior,37.7257185332,-122.417319637
79,166003,240 PACIFIC AV,08/27/2014,PL FILED,Financial District,37.7978697261,-122.400451523
80,0337014A,469 EDDY ST,08/28/2014,PL FILED,Downtown/Civic Center,37.783303868,-122.41531872
81,836011,22 FRANKLIN ST,01/02/2014,PL FILED,Downtown/Civic Center,37.7747267997,-122.420603684
82,3502108,198 VALENCIA ST,08/05/2014,BP FILED,Mission,37.7700962844,-122.422686285
83,927024,3336 BRODERICK ST,01/07/2015,BP FILED,Marina,37.801268526,-122.444491293
84,832025,300 OCTAVIA ST,02/25/2015,PL FILED,Western Addition,37.7750995504,-122.424039969
85,194009,740 WASHINGTON ST,09/26/2014,PL FILED,Chinatown,37.7954261468,-122.405874538
86,3753095,233-237 SHIPLEY ST,07/10/2013,PL FILED,South of Market,37.7790833344,-122.40351016
87,4591C143,47 KIRKWOOD AV,01/14/2015,BP FILED,Bayview,37.7266916028,-122.369495339
88,3639001,2600 HARRISON ST,06/20/2014,PL FILED,Mission,37.7553782114,-122.412406394
89,645003,1335 LARKIN ST,07/23/2014,PL FILED,Nob Hill,37.7903301156,-122.419308363
90,4591C165,89 KIRKWOOD AV,12/11/2014,BP FILED,Bayview,37.7271386358,-122.370962734
91,3995007,600 18TH STREET,09/30/2014,PL FILED,Potrero Hill,37.7631881033,-122.389089179
92,4008002,540 DE HARO ST,07/03/2014,PL FILED,Potrero Hill,37.7629070761,-122.401732116
93,41001,2293 POWELL ST,06/16/2014,PL FILED,North Beach,37.8056172019,-122.412199789
94,843016,690 PAGE ST,05/21/2013,BP FILED,Western Addition,37.7730643625,-122.432031853
95,3511015,1532 HOWARD ST,05/30/2014,BP FILED,South of Market,37.772817627,-122.416284263
96,506036,1727 LOMBARD ST,01/31/2012,PL FILED,Marina,37.8003213909,-122.430031375
97,3554003A,1924 MISSION ST,02/12/2015,PL FILED,Mission,37.7662988444,-122.420120722
98,4591C078,10 INNES CT,12/19/2014,BP FILED,Bayview,37.7279961861,-122.368048622
99,4591C020,536 HUDSON AV,01/14/2015,BP FILED,Bayview,37.7289308905,-122.368243334
100,572013,1458 BROADWAY,05/27/2014,BP FILED,Russian Hill,37.7963395157,-122.421086817
101,1202002B,650 DIVISADERO ST,08/26/2014,PL FILED,Western Addition,37.7757418191,-122.437587842
102,3985024,131 MISSOURI ST,06/19/2013,BP FILED,Potrero Hill,37.7646797618,-122.396412916
103,3554001,1900 MISSION STREET,09/18/2014,PL FILED,Mission,37.7665356363,-122.420108701
104,3642041,854 CAPP ST,02/13/2015,BP FILED,Mission,37.7530069555,-122.41773338
105,25024,888 NORTH POINT ST,12/16/2014,BP FILED,Russian Hill,37.8057454468,-122.421814231
106,3576062,645 VALENCIA ST,01/30/2014,PL FILED,Mission,37.7624999187,-122.421373035
107,3521053A,33 NORFOLK ST,04/17/2014,PL FILED,South of Market,37.7711554017,-122.413855895
108,3753089,265 Shipley Street,08/15/2014,PL FILED,South of Market,37.7786482969,-122.40406305
109,4591C073,10 KENNEDY PL,12/05/2014,BP FILED,Bayview,37.7280850184,-122.367505094
110,2393002,2405 32ND AV,03/17/2015,BP FILED,Parkside,37.7420029532,-122.489919695
111,4108003,2420 03RD ST,05/08/2014,BP FILED,Potrero Hill,37.7589406236,-122.38872197
112,3559001,2201 MARKET STREET,06/09/2014,PL FILED,Castro/Upper Market,37.7653602585,-122.431194063
113,4591C082,52 INNES CT,12/05/2014,BP FILED,Bayview,37.727688799,-122.367469422
114,185029,1469 PACIFIC AV,07/10/2013,PL FILED,Nob Hill,37.7950610391,-122.41942478
115,3196028,1532 OCEAN AV,09/10/2014,BP FILED,West of Twin Peaks,37.7246970393,-122.458779281
116,809020,311 GROVE STREET,10/15/2014,PL FILED,Downtown/Civic Center,37.777700848,-122.422008064
117,4591C092,51 INNES CT,12/05/2014,BP FILED,Bayview,37.726933231,-122.367512267
118,2393040,2255 TARAVAL ST,08/13/2013,PL FILED,Parkside,37.7421531501,-122.490454703
119,503021,1463 LOMBARD ST,04/22/2014,BP FILED,Marina,37.8008589124,-122.425496279
120,3590014,3324 19TH ST,02/19/2014,BP FILED,Mission,37.7605405642,-122.417664021
121,4044003,2146 3RD ST,01/23/2014,PL FILED,Potrero Hill,37.7624245155,-122.3890331
122,1609021,700 36TH AV,09/26/2008,BP FILED,Outer Richmond,37.7755402871,-122.49601103
123,4591C039,598 HUDSON AV,01/14/2015,BP FILED,Bayview,37.7295430637,-122.369320615
124,6941063,1415 OCEAN AV,08/29/2008,BP FILED,Ocean View,37.7238951758,-122.457593573
125,1279048,598 BELVEDERE ST,08/18/2009,BP FILED,Haight Ashbury,37.7619566737,-122.447681273
126,6243019,590 LELAND AVE,04/25/2014,BP FILED,Visitacion Valley,37.7151387194,-122.415335853
127,3615047,657 CAPP ST,01/08/2015,BP FILED,Mission,37.7562502183,-122.417452875
128,3651018,3822 24TH ST,02/21/2014,BP FILED,Noe Valley,37.7519013545,-122.428074157
129,3730096,34 LANGTON ST,10/08/2013,BP FILED,South of Market,37.7769452974,-122.40944445
130,6506032,4171 24TH ST,10/16/2014,BP FILED,Noe Valley,37.7509639009,-122.435538874
131,149010,908 BROADWAY,04/17/2014,PL FILED,Russian Hill,37.7973575218,-122.412499137
132,7272043,330 COUNTRY CLUB DR,01/13/2015,BP FILED,Lakeshore,37.7331369479,-122.495608979
133,3641010C,2782 FOLSOM ST,05/20/2014,BP FILED,Mission,37.7527220661,-122.414453548
134,1611001,3201 BALBOA ST,06/13/2008,BP FILED,Outer Richmond,37.7756554315,-122.493192186
135,1738021,1126 IRVING ST,08/21/2014,BP FILED,Inner Sunset,37.7641244226,-122.470016684
136,0331001A,231 ELLIS ST,02/28/2013,PL FILED,Downtown/Civic Center,37.7850127323,-122.409947659
137,1118003,930 BAKER ST,07/30/2014,BP FILED,Western Addition,37.7798974873,-122.441400558
138,1524039,5617 GEARY BL,10/31/2014,BP FILED,Outer Richmond,37.7800081458,-122.479797921
139,3731102,48 HARRIET ST,06/06/2008,BP FILED,South of Market,37.7786150974,-122.407106862
140,869007,127 BUCHANAN ST,08/07/2012,BP FILED,Western Addition,37.7709840977,-122.427208197
141,686040,1656 POST ST,09/23/2014,BP FILED,Western Addition,37.7859040324,-122.429080046
142,5640010,965 POWHATTAN AV,05/21/2014,BP FILED,Bernal Heights,37.7415083847,-122.410350093
143,3549041,315 SOUTH VAN NESS AV,07/18/2014,BP FILED,Mission,37.7681205858,-122.417460066
144,1407017,2500 CLEMENT ST,03/05/2013,BP FILED,Outer Richmond,37.7822334894,-122.486153719
145,7551033,2395 DIAMOND ST,06/15/2007,BP FILED,Glen Park,37.7385188249,-122.436253516
146,6611014,538 VALLEY ST,12/19/2007,BP FILED,Noe Valley,37.7442892857,-122.434308116
147,3640079,3040 24TH ST,12/17/2013,BP FILED,Mission,37.7527652854,-122.412774592
148,1842011,1455 11TH AV,07/07/2014,BP FILED,Inner Sunset,37.7610326748,-122.468576907
149,2614048,259 ROOSEVELT WY,02/25/2014,BP FILED,Castro/Upper Market,37.7656720974,-122.440264385
150,5577013,29 JOY ST,09/25/2006,BP FILED,Bernal Heights,37.7437450107,-122.407120859
151,3574008,2138 FOLSOM ST,02/18/2011,BP FILED,Mission,37.7630742862,-122.415444189
152,5535006,354 MULLEN AV,06/28/2011,BP FILED,Bernal Heights,37.7459344598,-122.40616538
153,3612017A,787 TREAT AV,03/17/2014,BP FILED,Mission,37.7576735853,-122.413312922
154,0465A022,3436 SCOTT ST,11/15/2011,BP FILED,Marina,37.8016975899,-122.441193286
155,4008003,580 DE HARO STREET,03/13/2014,PL FILED,Potrero Hill,37.7625647992,-122.401698861
156,1511005,531 33RD AV,12/19/2014,BP FILED,Outer Richmond,37.7790034384,-122.493587338
157,3502111,25 ELGIN PARK ST,08/12/2014,BP FILED,Mission,37.771053888,-122.423116759
158,1212022,2175 HAYES ST,11/18/2011,BP FILED,Haight Ashbury,37.7728934324,-122.452060411
159,3601071,3927 19TH ST,08/13/2008,BP FILED,Castro/Upper Market,37.7592647564,-122.431204637
160,4209017,2830 24TH ST,07/11/2012,BP FILED,Mission,37.7530474102,-122.408790996
161,3589108,777 VALENCIA ST,10/31/2013,BP FILED,Mission,37.7605645926,-122.421187702
162,3985027,1239 17TH ST,11/21/2013,BP FILED,Potrero Hill,37.764914045,-122.396544098
163,3628014,1090 CHURCH ST,02/09/2006,BP FILED,Noe Valley,37.7534473316,-122.427950973
164,1688001A,4411 CABRILLO ST,12/13/2006,BP FILED,Outer Richmond,37.7731955021,-122.506034728
165,6411034,974 GENEVA AV,03/13/2015,BP FILED,Crocker Amazon,37.715661196,-122.440112837
166,3534020,21 ROSEMONT PL,07/23/2014,PL FILED,Mission,37.7687605657,-122.425403617
167,744020,885 FRANKLIN ST,12/04/2013,BP FILED,Downtown/Civic Center,37.7824008331,-122.4226362
168,1456023,6044 GEARY BLVD,09/05/2014,BP FILED,Outer Richmond,37.7804129875,-122.4844822
169,478003,2815 POLK ST,07/09/2014,BP FILED,Russian Hill,37.8027501344,-122.423410114
170,6428001,520 CARTER ST,01/24/2012,BP FILED,Crocker Amazon,37.7090361495,-122.42375118
171,3974020,455 POTRERO AV,02/09/2012,PL FILED,Mission,37.7637719069,-122.407007902
172,4218036,1321 DE HARO ST,07/16/2009,PL APPROVED,Potrero Hill,37.7531363157,-122.400171513
173,1462031,460 31ST AV,12/18/2014,BP FILED,Outer Richmond,37.7806293802,-122.490887128
174,4148027,2621 HARRISON ST,04/17/2014,BP FILED,Mission,37.7553783068,-122.411841709
175,498020,2920 FRANKLIN ST,03/20/2015,BP FILED,Marina,37.8015373927,-122.425995051
176,1068003,80 BLAKE ST,06/14/2013,BP FILED,Presidio Heights,37.7824989491,-122.45090982
177,2630018,1169 STANYAN ST,09/25/2013,BP ISSUED,Inner Sunset,37.7628731218,-122.452553125
178,4101004,534 TEXAS ST,12/30/2011,BP FILED,Potrero Hill,37.7595300362,-122.395576123
179,3730009,280 07TH ST,09/11/2012,PL FILED,South of Market,37.776817386,-122.408526828
180,3569017,3312 17TH ST,02/18/2015,BP FILED,Mission,37.7635791087,-122.419977043
181,0156015A,151 BERNARD ST,11/26/2014,BP FILED,Nob Hill,37.7960937865,-122.415923544
182,5626013,3516 Folsom St,12/16/2013,BP FILED,Bernal Heights,37.7420758767,-122.413347598
183,499004,2806 VAN NESS AV,11/18/2014,BP FILED,Russian Hill,37.8016255706,-122.424188207
184,936020,3215 SCOTT ST,10/24/2014,BP FILED,Marina,37.7994601361,-122.441238144
185,3983014,153 ARKANSAS ST,08/28/2013,BP FILED,Potrero Hill,37.7642211224,-122.39831338
186,5426031,2075 BANCROFT AV,04/19/2012,PL FILED,Bayview,37.7304253321,-122.401845872
187,3656010,4024 24TH ST,05/20/2014,BP FILED,Noe Valley,37.7516329682,-122.432526937
188,156036,160 BERNARD ST,08/13/2014,BP FILED,Nob Hill,37.7963282149,-122.416059803
189,3502024,140 DUBOCE AV,09/11/2014,PL FILED,Mission,37.7700132218,-122.42349678
190,2659052,3198 MARKET ST,07/22/2014,BP FILED,Castro/Upper Market,37.7595387751,-122.445090489
191,935024,2429 CHESTNUT ST,09/06/2013,BP FILED,Marina,37.799624503,-122.443381054
192,4211011,1152 POTRERO AV,02/24/2015,BP FILED,Mission,37.7537094506,-122.40674426
193,4002024,201 MISSOURI ST,05/07/2014,BP FILED,Potrero Hill,37.7636814944,-122.396319214
194,1265019,1236 ARGUELLO BLVD,05/23/2014,BP FILED,Inner Sunset,37.7652681884,-122.457341082
195,7138056,115 PLYMOUTH AV,08/15/2014,PL FILED,Ocean View,37.7119696918,-122.456231652
196,105065,377 FILBERT ST,08/21/2013,PL FILED,North Beach,37.801601593,-122.405750062
197,1732037,1236 19TH AV,02/07/2014,BP FILED,Inner Sunset,37.7646824358,-122.476874732
198,1383004,127 23RD AV,12/19/2014,BP FILED,Outer Richmond,37.7852732109,-122.483293275
199,4645017,870 INNES AV,09/26/2014,PL FILED,Bayview,37.7319682993,-122.375173227
200,103021,146  Jasper Place,06/24/2013,PL FILED,North Beach,37.8012555802,-122.408790537
201,4094046,931 KANSAS ST,07/02/2014,BP FILED,Potrero Hill,37.7579639393,-122.402576622
202,3729042,716 CLEMENTINA ST,05/29/2014,BP FILED,South of Market,37.7752336238,-122.411127988
203,5513011,1513 YORK ST,07/09/2014,BP FILED,Bernal Heights,37.7481252857,-122.406867305
204,5503018,3123 FOLSOM ST,07/30/2014,BP FILED,Bernal Heights,37.7479114435,-122.413325947
205,3569052,8 RONDEL PL,02/04/2014,BP FILED,Mission,37.7644912954,-122.421350773
206,5312014,1750 OAKDALE AV,02/14/2013,BP FILED,Bayview,37.7364132781,-122.393000375
207,840001,355 LAGUNA ST,02/11/2015,PL FILED,Western Addition,37.7743834379,-122.426019972
208,1144020,2506 MCALLISTER ST,03/18/2014,BP FILED,Inner Richmond,37.7759351465,-122.453275274
209,4071014,1914 20TH ST,10/25/2013,PL FILED,Potrero Hill,37.7599981019,-122.400513748
210,4094047,929 KANSAS ST,07/02/2014,BP FILED,Potrero Hill,37.7580323986,-122.4025832
211,6692002,3808 MISSION ST,01/20/2011,BP FILED,Bernal Heights,37.7357813499,-122.424866682
212,2628035,301 UPPER TR,03/20/2015,BP FILED,Castro/Upper Market,37.7621021018,-122.445586592
213,1456003,423 24TH AV,05/15/2014,BP FILED,Outer Richmond,37.781567572,-122.484098136
214,4094048,925 KANSAS ST,07/02/2014,BP FILED,Potrero Hill,37.7580993255,-122.402589629
215,6472022,5875 MISSION ST,12/31/2013,BP FILED,Crocker Amazon,37.7086917569,-122.451777061
216,7113063,195 BROAD ST,02/18/2015,BP FILED,Ocean View,37.7129604584,-122.458831849
217,1080008,1419 BRODERICK ST,02/21/2007,BP FILED,Western Addition,37.7834682092,-122.441514705
218,4094045,935 KANSAS ST,07/02/2014,BP FILED,Potrero Hill,37.7578954791,-122.402570043
219,1450007,339 18TH AV,06/27/2008,BP FILED,Inner Richmond,37.7815837269,-122.477646498
220,1731015,1271 19TH AV,08/15/2014,PL FILED,Outer Sunset,37.7641077528,-122.477551114
221,5319037,1947 OAKDALE AV,05/12/2014,BP FILED,Bayview,37.7380891058,-122.397029861
222,4909003,1212 EGBERT AV,12/31/2013,BP FILED,Bayview,37.7209163425,-122.389005623
223,6048010,2774 SAN BRUNO AV,12/16/2014,BP FILED,Excelsior,37.7266782192,-122.403469036
224,1538036,4221 GEARY BL,03/16/2015,BP FILED,Inner Richmond,37.7806907964,-122.464709248
225,1435017,3932 GEARY BL,07/08/2011,BP FILED,Inner Richmond,37.7814467062,-122.461678039
226,5826003,106 BACHE ST,04/27/2007,BP FILED,Bernal Heights,37.7337224491,-122.417787982
227,1467020,483 35TH AV,11/30/2009,BP FILED,Outer Richmond,37.7799975445,-122.495742601
228,6566027,1411 CHURCH ST,06/04/2012,BP FILED,Noe Valley,37.748255241,-122.426789702
229,6611003,2104 CASTRO ST,11/19/2008,BP FILED,Noe Valley,37.7446165893,-122.433766411
230,5721077,349 RICHLAND AV,03/29/2013,BP FILED,Bernal Heights,37.7359102555,-122.418447989
231,5305010,1734 NEWCOMB AV,09/24/2010,BP FILED,Bayview,37.7368796109,-122.392156239
232,627006,2224 SACRAMENTO ST,06/25/2014,BP FILED,Pacific Heights,37.7905774069,-122.430322871
233,2372024A,3350 TARAVAL ST,03/18/2010,BP FILED,Parkside,37.7421253607,-122.502317754
234,797019,890 GROVE ST,05/27/2014,CONSTRUCTION,Western Addition,37.776980966,-122.431227691
235,155021,1370 PACIFIC AV,08/12/2014,BP FILED,Nob Hill,37.7956826009,-122.417763154
236,155020,1364 PACIFIC AV,08/12/2014,BP FILED,Nob Hill,37.7956907706,-122.417699083
237,867033,445 WALLER ST,08/03/2009,BP FILED,Western Addition,37.770819668,-122.430988095
238,6501010,60 FOUNTAIN ST,06/16/2009,BP FILED,Noe Valley,37.7499080719,-122.441905875
239,1840015,1491 FUNSTON AV,04/02/2010,BP FILED,Inner Sunset,37.7603204117,-122.470678515
240,5312049,1710 OAKDALE AV,04/26/2010,BP FILED,Bayview,37.7360344375,-122.392331796
241,5918001,1248 SILVER AV,05/06/2010,BP FILED,Excelsior,37.7303383077,-122.411437537
242,1706045,4335 LINCOLN WY,05/06/2011,PL FILED,Outer Sunset,37.7639714601,-122.504652589
243,948018,2851 FILBERT ST,08/23/2010,PL FILED,Marina,37.7963837304,-122.446362024
244,7003013,335 RALSTON ST,06/01/2015,BP ISSUED,Ocean View,37.7185431968,-122.469219481
245,6994039,466 VERNON ST,07/17/2014,BP FILED,Ocean View,37.7208822967,-122.467789853
246,3727045,618 NATOMA ST,09/13/2014,PL FILED,South of Market,37.7781299431,-122.410570778
247,7036012,345 LOUISBURG ST,03/21/2007,BP FILED,Ocean View,37.7187098617,-122.450914094
248,7044A006,5498 MISSION ST,11/18/2009,PL FILED,Outer Mission,37.7129143232,-122.444826411
249,6577046,3769 CESAR CHAVEZ ST,03/23/2015,BP FILED,Bernal Heights,37.7476387167,-122.423965919
250,6665049,53 MIGUEL ST,03/06/2015,BP FILED,Glen Park,37.7391576131,-122.429339697
251,529002,2727 GOUGH ST,08/14/2009,BP FILED,Marina,37.7985223488,-122.427678221
252,73020,835 LOMBARD ST,02/18/2009,BP FILED,Russian Hill,37.8022612799,-122.415252469
253,6942004,1173 PLYMOUTH AV,06/11/2008,BP FILED,Ocean View,37.7233349901,-122.456462702
254,2046040A,227 NORIEGA ST,02/12/2009,BP FILED,Inner Sunset,37.7544455344,-122.46617716
255,3116006,400 HEARST AV,09/26/2014,PL FILED,Outer Mission,37.7308287701,-122.446810657
256,7279041,34 COUNTRY CLUB DR,01/27/2015,BP FILED,Lakeshore,37.7298683946,-122.495087217
257,7518081,868 DUNCAN ST,03/02/2015,BP FILED,Noe Valley,37.7456030202,-122.439231954
258,3625040,421 ALVARADO ST,02/06/2009,BP FILED,Noe Valley,37.7536809861,-122.430394746
259,453011,977 NORTH POINT ST,03/23/2011,BP FILED,Russian Hill,37.8050657876,-122.423139114
260,6994020,508 GARFIELD ST,11/04/2014,BP FILED,Ocean View,37.7198554063,-122.467388766
261,1608012,762 37TH AV,09/04/2008,BP FILED,Outer Richmond,37.7745558901,-122.49690809
262,1583006,623 40TH AV,07/06/2007,BP FILED,Outer Richmond,37.7769256108,-122.500956118
263,1571015C,622 29TH AV,05/22/2006,BP FILED,Outer Richmond,37.7774961301,-122.488511458
264,1460024,411 28TH AV,04/15/2008,BP FILED,Outer Richmond,37.7815728884,-122.48829879
265,6521025,2877 FOLSOM ST,12/01/2014,BP FILED,Mission,37.7512978224,-122.413628541
266,1371039,112 12TH AV,07/29/2014,BP FILED,Inner Richmond,37.7859109754,-122.470749604
267,6484024,1160 PRAGUE ST,03/30/2015,BP FILED,Crocker Amazon,37.7102713545,-122.439087367
268,5744016,339 CRESCENT AV,10/01/2014,BP FILED,Bernal Heights,37.7351671178,-122.417905428
269,7537001,601 29TH ST,10/06/2014,BP FILED,Noe Valley,37.7431550954,-122.43358402
270,2392037,2337 TARAVAL ST,12/31/2013,BP FILED,Parkside,37.7421120656,-122.491387756
271,2764010,268 GRAND VIEW AV,10/28/2014,BP FILED,Noe Valley,37.7539421714,-122.441545727
272,1355004,19 ARGUELLO BL,10/15/2014,BP FILED,Presidio Heights,37.7891288883,-122.459821817
273,7536010,628 29TH ST,10/16/2014,BP FILED,Noe Valley,37.7434826606,-122.434318535
274,2039044,427 MORAGA ST,07/03/2008,BP FILED,Inner Sunset,37.7562669315,-122.467379287
275,1934023,1698 10TH AV,12/01/2006,BP FILED,Inner Sunset,37.7567248421,-122.466661691
276,1067009,37 BLAKE ST,12/12/2014,BP FILED,Presidio Heights,37.7830581768,-122.451649265
277,3596025,267 SAN CARLOS ST,03/31/2015,BP FILED,Mission,37.7591597162,-122.419695882
278,1533017,473 11TH AV,05/28/2009,BP FILED,Inner Richmond,37.779254623,-122.469851387
279,3642062,811 CAPP ST,10/17/2012,BP FILED,Mission,37.7536912122,-122.41716492
280,3726062,532 NATOMA ST,03/09/2015,BP FILED,South of Market,37.7796857585,-122.408582212
281,6738020,831 CHENERY ST,11/04/2014,BP FILED,Glen Park,37.7346702889,-122.436198574
282,2860004,2181 09TH AV,03/19/2015,BP FILED,West of Twin Peaks,37.7482479354,-122.465295659
283,793009,428 GROVE ST,03/24/2015,BP FILED,Western Addition,37.7779325166,-122.423747771
284,753010,1594 GOLDEN GATE AV,02/24/2015,BP FILED,Western Addition,37.7792126128,-122.436768346
285,1604003I,779 40TH AV,02/17/2015,BP FILED,Outer Richmond,37.7741067083,-122.500709291
286,1667024,4820 FULTON ST,03/12/2015,BP FILED,Outer Richmond,37.7728488321,-122.483587198
287,1675016,844 33RD AV,03/19/2015,BP FILED,Outer Richmond,37.7732342446,-122.492509253
288,550004,2237 POLK ST,07/02/2007,BP FILED,Russian Hill,37.7974861207,-122.422348108
289,3749012,15 GUY PL,01/29/2015,PL FILED,South of Market,37.7863074578,-122.394352015
290,5386002,2008 KEITH ST,11/03/2014,BP FILED,Bayview,37.7285801717,-122.390410059
291,5618007,116 ELSIE ST,11/19/2014,BP FILED,Bernal Heights,37.7428227953,-122.417899625
292,2752024,331 COLLINGWOOD ST,10/10/2014,BP FILED,Castro/Upper Market,37.7570741082,-122.435437068
293,6685006A,240 CHENERY ST,04/15/2015,BP FILED,Glen Park,37.7383398937,-122.426566237
294,491020,3342 STEINER ST,01/17/2008,BP FILED,Marina,37.8003130052,-122.437534692
295,2628034,4500 17TH ST,03/20/2015,BP FILED,Castro/Upper Market,37.7620708507,-122.445424776
296,5701011,462 PRENTISS ST,02/12/2015,BP FILED,Bernal Heights,37.7374724701,-122.412387866
297,3618092,978 - 980 GUERRERO ST,02/17/2015,BP FILED,Mission,37.7555306037,-122.423563225
298,1719012,1200 32ND AV,01/15/2015,BP FILED,Outer Sunset,37.7646747841,-122.490897555
299,1758046,1308 04TH AV,03/25/2015,BP FILED,Inner Sunset,37.7640745401,-122.46065809
300,4273018,1331 FLORIDA ST,05/14/2008,BP FILED,Mission,37.7500593198,-122.409533373
301,4263007,1366 SAN BRUNO AV,03/21/2007,BP FILED,Mission,37.7522247563,-122.404590098
302,3634025,25 ALVARADO ST,10/22/2014,BP FILED,Mission,37.7541962898,-122.421904761
303,596004,1837 LARKIN ST,01/05/2015,BP FILED,Nob Hill,37.7948554571,-122.420172826
304,4098027,749 WISCONSIN ST,12/15/2006,BP FILED,Potrero Hill,37.7579906586,-122.398692302
305,4097027,891 CAROLINA ST,02/11/2014,BP FILED,Potrero Hill,37.7574514601,-122.399615172
306,3753075,268 CLARA ST,03/31/2015,BP FILED,South of Market,37.778355779,-122.404056698
307,4209002,1110 YORK ST,02/10/2015,BP FILED,Mission,37.754026922,-122.40857966
308,5336048,1911 QUESADA AV,08/08/2013,PL FILED,Bayview,37.7353930182,-122.395590422
309,5557021,37 RUTLEDGE ST,08/21/2014,PL FILED,Bernal Heights,37.7450224104,-122.406241046
310,5524045,3301 FOLSOM ST,03/06/2008,BP FILED,Bernal Heights,37.7450399146,-122.413025012
311,5395065,47 LEDYARD ST,06/20/2006,BP FILED,Bayview,37.733300819,-122.401774595
312,4266012,1274 HAMPSHIRE ST,03/03/2015,BP FILED,Mission,37.7518161526,-122.407465265
313,4085003,824 FLORIDA ST,03/11/2015,BP FILED,Mission,37.7586408651,-122.410910013
314,6940012,231 JULES AV,10/30/2014,BP FILED,Ocean View,37.7224302157,-122.461561772
315,5934026,161 UNIVERSITY ST,12/12/2014,BP FILED,Excelsior,37.7279663648,-122.414352238
316,6208027,497 CAMPBELL AV,12/29/2014,BP FILED,Visitacion Valley,37.7150123548,-122.406152034
317,6472075,80 OLIVER ST,10/02/2014,BP FILED,Crocker Amazon,37.7084873258,-122.450238344
318,6504017,4400 25TH ST,12/08/2014,BP FILED,Noe Valley,37.7495421626,-122.43860888
319,0443A017,1767 BEACH ST,01/30/2015,BP FILED,Marina,37.8040033982,-122.438356513
320,4030014,2018 19TH ST,02/04/2015,BP FILED,Potrero Hill,37.7611512825,-122.402665314
321,5673003,322 COLERIDGE ST,12/05/2014,BP FILED,Bernal Heights,37.7415816218,-122.421343865
322,6956014,33 LEO ST,10/28/2014,BP FILED,Outer Mission,37.7225544612,-122.437255361
323,1446038,350 15TH AV,12/30/2014,BP FILED,Inner Richmond,37.7815509459,-122.473702247
324,6618003,1560 DOLORES ST,10/15/2014,BP FILED,Noe Valley,37.7443508669,-122.424816045
325,1418033,252 16TH AV,11/04/2014,BP FILED,Inner Richmond,37.7833280884,-122.474948526
326,4146025,963 ALABAMA ST,01/21/2015,BP FILED,Mission,37.7565224002,-122.411054504
327,829024,524 HICKORY ST,01/29/2015,BP FILED,Western Addition,37.7749492322,-122.428592539
328,1223003,1625 OAK ST,02/23/2015,BP FILED,Haight Ashbury,37.7714457298,-122.44592669
329,5909023,167 HARVARD ST,10/21/2014,BP FILED,Excelsior,37.727560823,-122.420724386
330,1412030,5921 CALIFORNIA ST,11/18/2014,BP FILED,Outer Richmond,37.7838284093,-122.481109641
331,3603024,799 Castro Street,09/19/2014,BP FILED,Castro/Upper Market,37.7562361777,-122.434237827
332,1444015,371 12TH AV,10/02/2014,BP FILED,Inner Richmond,37.781328178,-122.471079749
333,1659041,718 17TH AV,11/04/2014,BP FILED,Inner Richmond,37.7744245806,-122.47539856
334,4080015,720 YORK ST,07/30/2013,BP FILED,Mission,37.759825851,-122.409202915
335,181013,1044 JACKSON ST,11/24/2014,BP FILED,Nob Hill,37.7954586093,-122.412285931
336,1219018,102 BAKER ST,11/25/2014,BP FILED,Haight Ashbury,37.7720172868,-122.440249465
337,1312022,830 EL CAMINO DEL MAR *,12/13/2013,BP FILED,Seacliff,37.7872968017,-122.492644376
338,6435012,23 CANYON DR,12/26/2013,BP FILED,Crocker Amazon,37.7084590995,-122.431923051
339,1628028,618 17TH AV,09/12/2013,BP FILED,Inner Richmond,37.7762906481,-122.475533925
340,1253009,735 CLAYTON ST,08/22/2013,BP FILED,Haight Ashbury,37.7681356236,-122.448578032
341,1729007,1239 21ST AV,04/16/2014,BP FILED,Outer Sunset,37.7645597981,-122.479671995
342,948029,2855 FILBERT ST,10/04/2013,BP FILED,Marina,37.7963799751,-122.446457784
343,2619066,24 ORD CT,10/21/2013,BP FILED,Castro/Upper Market,37.7639443605,-122.440616404
344,2619067,22 ORD CT,10/21/2013,BP FILED,Castro/Upper Market,37.7639077762,-122.44054322
345,6992012,547 VICTORIA ST,07/17/2014,BP FILED,Ocean View,37.7205552525,-122.465643357
346,1622025,668 23RD AV,05/13/2014,BP FILED,Outer Richmond,37.7751731983,-122.481901563
347,1677004,827 34TH AV,09/09/2014,BP FILED,Outer Richmond,37.7734295759,-122.49425629
348,1577001A,607 34TH AV,01/16/2015,BP FILED,Outer Richmond,37.7775005576,-122.494474438
349,1579017,672 37TH AV,03/31/2015,BP FILED,Outer Richmond,37.7762863168,-122.497032788
350,5338032,1781 QUESADA AV,05/20/2013,BP FILED,Bayview,37.7339815708,-122.393114829
351,6503006,42 HOMESTEAD ST,08/12/2013,BP FILED,Noe Valley,37.7502456184,-122.439798593
352,5514002,1510 YORK ST,09/19/2014,BP FILED,Bernal Heights,37.7478610731,-122.407847633
353,1648012,763 05TH AV,09/02/2014,BP FILED,Inner Richmond,37.7744101074,-122.463060765
354,944030,2582 FILBERT ST,04/14/2014,BP FILED,Marina,37.7975295554,-122.441863616
355,1407046,6423 CALIFORNIA ST,04/30/2014,BP FILED,Outer Richmond,37.783567594,-122.486511245
356,1598020,4524 CABRILLO ST,03/31/2015,BP FILED,Outer Richmond,37.7736178614,-122.507321828
357,6092018,575 ATHENS ST,02/12/2015,BP FILED,Excelsior,37.7188041669,-122.430228263
358,2058009J,1822 22ND AV,09/30/2014,BP FILED,Outer Sunset,37.7536270279,-122.479325324
359,5980003,208 GIRARD ST,04/09/2013,BP FILED,Excelsior,37.7293963258,-122.405755957
360,5312013,1748 OAKDALE AV,06/25/2013,BP FILED,Bayview,37.7363734006,-122.392929999
361,5545017,1551 SHOTWELL ST,12/30/2013,BP FILED,Bernal Heights,37.7445982332,-122.414641327
362,6304014,972 RUTLAND ST,03/02/2015,BP FILED,Visitacion Valley,37.7103661197,-122.408720728
363,69020,1001 CHESTNUT ST,06/18/2013,PL FILED,Russian Hill,37.8027080398,-122.420065181
364,2023004,1715 26TH AV,03/19/2015,BP FILED,Outer Sunset,37.7554179303,-122.484343161
365,1567032,3339 ANZA ST,07/21/2014,BP FILED,Outer Richmond,37.7779327724,-122.484241447
366,6942028,344 HOLLOWAY AV,05/03/2013,PL FILED,Ocean View,37.7220634,-122.456912088
367,1774006,1321 19TH AV,09/18/2014,BP FILED,Outer Sunset,37.7630610704,-122.477465988
368,1840002,1419 FUNSTON AV,07/01/2014,BP FILED,Inner Sunset,37.7615543678,-122.470764785
369,1549034,550 07TH AV,03/19/2015,BP FILED,Inner Richmond,37.7780985795,-122.464818423
370,1226019,418 SHRADER ST,01/20/2015,BP FILED,Haight Ashbury,37.7707621281,-122.451840468
371,2014004,1758 36TH AV,08/14/2014,BP FILED,Outer Sunset,37.7542143399,-122.494416243
372,1772004K,1341 17TH AV,03/10/2015,BP FILED,Inner Sunset,37.7628419822,-122.475256598
373,1718046,3125 LINCOLN WY,11/06/2014,BP FILED,Outer Sunset,37.7645587255,-122.49165419
374,1713036,1246 38TH AV,11/21/2014,BP FILED,Outer Sunset,37.7636446638,-122.497223758
375,5428D037,108 ORSI CR,07/23/2014,BP FILED,Bayview,37.7282105042,-122.398218427
376,2329008,938 SANTIAGO ST,10/24/2014,BP FILED,Parkside,37.7450853163,-122.47761693
377,3175003,579 MIRAMAR AV,01/22/2015,BP FILED,West of Twin Peaks,37.7271936793,-122.458514031
378,4991264,88 LE CONTE CR,08/01/2014,BP FILED,Bayview,37.7178867124,-122.394730269
379,2701A019,4621 19TH ST,04/14/2014,PL FILED,Castro/Upper Market,37.7587824571,-122.441164531
380,4158060,1019 KANSAS ST,10/29/2014,BP FILED,Potrero Hill,37.7567530763,-122.402460377
381,1827013A,1477 26TH AV,11/21/2014,BP FILED,Outer Sunset,37.7599102167,-122.484723717
382,3591025,3252 19TH ST,12/22/2014,BP FILED,Mission,37.7606387344,-122.416109333
383,2316001,2227 33RD AV,10/08/2014,BP FILED,Parkside,37.7455294886,-122.491244913
384,3158033,371 STAPLES AV,10/06/2014,BP FILED,Outer Mission,37.7288325477,-122.450463482
385,2623039,53 DOUGLASS ST,12/23/2014,BP FILED,Castro/Upper Market,37.7628748404,-122.439191437
386,2364047,2433 SANTIAGO ST,12/22/2014,BP FILED,Parkside,37.743890346,-122.493528815
387,2349038,2308 21ST AV,11/21/2014,BP FILED,Parkside,37.7446213824,-122.477640315
388,4158011,1076 RHODE ISLAND ST,12/12/2014,BP FILED,Potrero Hill,37.7561577623,-122.402056174
389,5529012,88 MONTCALM ST,05/30/2014,BP FILED,Bernal Heights,37.746868016,-122.406527633
390,2067002O,1855 30TH AV,03/31/2015,BP FILED,Outer Sunset,37.7526737883,-122.488510371
391,7119027,122 ARCH ST,09/23/2013,BP FILED,Ocean View,37.7129377237,-122.46687711
392,5320015,1893 OAKDALE AV,07/22/2013,BP FILED,Bayview,37.7374766124,-122.395926482
393,2318005,2219 31ST AV,03/09/2015,BP FILED,Parkside,37.7457834966,-122.489107722
394,1561038A,500 19TH AV,09/05/2014,BP FILED,Inner Richmond,37.7782602201,-122.477972995
395,5626014,3526 FOLSOM ST,12/16/2013,BP FILED,Bernal Heights,37.7420073636,-122.413353232
396,7008038,466 VICTORIA ST,03/03/2015,BP FILED,Ocean View,37.7191200594,-122.465079475
397,845027,969 OAK ST,08/22/2014,BP FILED,Western Addition,37.7731313767,-122.435173811
398,2933007,127 EDGEHILL WY,05/29/2014,BP FILED,West of Twin Peaks,37.7432997831,-122.460148198
399,945012,2528 UNION ST,01/22/2014,BP FILED,Marina,37.7965885336,-122.441677182
400,1417029,228 17TH AV,05/06/2014,PL FILED,Inner Richmond,37.7837435611,-122.476074265
401,3654040,3904 24TH ST,05/30/2014,PL FILED,Noe Valley,37.7517507265,-122.429904823
402,2038A018,1762 12TH AV,07/15/2013,BP FILED,Inner Sunset,37.755286986,-122.468593964
403,867031,457 WALLER ST,04/01/2014,BP FILED,Western Addition,37.7707979729,-122.43115891
404,6489035,336 HANOVER ST,08/06/2014,BP FILED,Crocker Amazon,37.709226478,-122.443649886
405,7147050,177 SAGAMORE ST,03/21/2014,BP FILED,Ocean View,37.7111229812,-122.458289564
406,3261002,10 APTOS AV,03/05/2012,BP FILED,West of Twin Peaks,37.7316033445,-122.46634103
407,3116007,412 HEARST AV,04/13/2012,BP FILED,Outer Mission,37.7309478818,-122.447073586
408,7277044,189 COUNTRY CLUB DR,01/13/2015,BP FILED,Lakeshore,37.731419908,-122.496790968
409,6597037,55 DUNCAN ST,07/11/2014,BP FILED,Bernal Heights,37.7462205835,-122.421333537
410,3730118,1117 HOWARD ST,01/30/2014,BP FILED,South of Market,37.7774865102,-122.409557576
411,3598068,3643 19TH ST,06/18/2013,BP FILED,Mission,37.7596601472,-122.424663616
412,3116023,300 FOERSTER ST,09/26/2014,BP FILED,Outer Mission,37.7308217345,-122.44858558
413,5545019,1525 SHOTWELL ST,12/30/2013,BP FILED,Bernal Heights,37.7447351503,-122.414654524
414,5524044,3303 FOLSOM ST,03/03/2015,BP FILED,Bernal Heights,37.7449714559,-122.413018417
415,6593022,1513-1517 CHURCH ST,06/28/2012,PL FILED,Noe Valley,37.7465793423,-122.426658496
416,7085017,119 VERNON ST,02/06/2014,BP FILED,Ocean View,37.7146829187,-122.468278299
417,3636027,1181 VALENCIA ST,03/10/2014,BP FILED,Mission,37.7540655432,-122.420487354
418,6946019,76 BRUCE AV,09/26/2014,BP FILED,Ocean View,37.7223601284,-122.452523726
419,7135023,216 HEAD ST,11/05/2010,BP FILED,Ocean View,37.7112827041,-122.464091753
420,2623074,53 STATES ST,01/31/2014,PL FILED,Castro/Upper Market,37.7631762619,-122.436455825
421,5406016,220 WILLIAMS AV,12/07/2010,BP FILED,Bayview,37.7302370579,-122.397608826
422,4219043,1123 CAROLINA ST,02/20/2014,BP FILED,Potrero Hill,37.7543069478,-122.39931684
423,2805036,4267 23RD ST,07/11/2011,BP FILED,Noe Valley,37.7524250286,-122.437938352
424,1419007,239 14TH AV,01/12/2015,BP FILED,Inner Richmond,37.783580226,-122.473406135
425,1603049,4025 BALBOA ST,02/04/2015,BP FILED,Outer Richmond,37.7752594637,-122.502008175
426,3609109,333 SAN CARLOS ST,01/22/2013,BP FILED,Mission,37.7580106722,-122.419583019
427,1066030,680 SPRUCE ST,03/07/2013,BP FILED,Presidio Heights,37.7823056218,-122.452971593
428,6087025,427 LISBON ST,03/16/2015,BP FILED,Excelsior,37.7214246873,-122.433699466
429,6942054,1325 OCEAN AV,01/08/2013,BP FILED,Ocean View,37.7236960252,-122.456658183
430,3588056,659 GUERRERO ST,03/26/2013,BP FILED,Mission,37.7606495186,-122.42340398
431,3582054,4072 18TH ST,02/13/2013,BP FILED,Castro/Upper Market,37.7611560998,-122.434316801
432,1269087,281 FREDERICK ST,02/21/2014,BP FILED,Haight Ashbury,37.7668015716,-122.44771329
433,1841007,1443 12TH AV,01/28/2013,BP FILED,Inner Sunset,37.7611900883,-122.469664715
434,1612017N,774 33RD AV,02/07/2013,BP FILED,Outer Richmond,37.7745465164,-122.492604682
435,6521004,13 LUCKY ST,03/21/2013,BP FILED,Mission,37.7522281027,-122.413388001
436,151029,81 GLOVER ST,04/22/2013,BP FILED,Russian Hill,37.7969971602,-122.416514157
437,1216005,1052 OAK ST,02/28/2013,BP FILED,Western Addition,37.7734341741,-122.43672551
438,1453033,346 22ND AV,09/05/2014,CONSTRUCTION,Outer Richmond,37.7812831562,-122.481267588
439,6489090,2 BYRON CT,06/13/2014,PL FILED,Crocker Amazon,37.709875468,-122.443590728
440,1168025,2486 FULTON ST,04/23/2014,BP FILED,Inner Richmond,37.7745607817,-122.458019252
441,2162031,2050 43RD AV,08/29/2014,BP FILED,Outer Sunset,37.7484223378,-122.501531966
442,3202032,1911 SAN JOSE AV,07/24/2014,BP FILED,Outer Mission,37.7265097605,-122.441360083
443,119017,852 GREEN ST,04/18/2014,BP FILED,Russian Hill,37.7992711425,-122.413206318
444,797003,751 WEBSTER ST,03/28/2013,BP FILED,Western Addition,37.7776287623,-122.430138776
445,539031,2237 UNION ST,05/08/2014,BP FILED,Marina,37.7967153178,-122.436172479
446,6525001A,1 HORACE ST,09/24/2014,BP FILED,Mission,37.7507228458,-122.414397952
447,1582001B,611 39TH AV,03/06/2015,BP FILED,Outer Richmond,37.7771862705,-122.499820289
448,1624005B,645 20TH AV,01/11/2013,BP FILED,Outer Richmond,37.7756776967,-122.479371512
449,1416003,225 17TH AV,03/26/2014,BP FILED,Inner Richmond,37.7837830708,-122.476733977
450,3146021,331 CAPISTRANO AV,08/06/2014,BP FILED,Outer Mission,37.7261747441,-122.438058257
451,3727091,1125 MISSION ST,01/15/2015,PL FILED,South of Market,37.7784822427,-122.411259921
452,165022,717 BATTERY ST,12/01/2008,BP FILED,Financial District,37.7978818118,-122.401284629
453,2360014,2120 TARAVAL ST,03/18/2015,PL FILED,Parkside,37.7427172902,-122.488886374
454,3704022,982 MISSION ST,12/19/2014,BP FILED,South of Market,37.7815826589,-122.408520177
455,4067012,1512 20TH ST,10/29/2013,BP FILED,Potrero Hill,37.7602311329,-122.396658468
456,3702391,"TRINITY PLAZA, PHASE IV",,PL APPROVED,South of Market,37.7784387635,-122.413479759
457,654001,2429 CALIFORNIA ST,08/23/2007,BP FILED,Western Addition,37.7885365906,-122.43430672
458,5375059,707 BAY SHORE BLVD,01/03/2015,PL FILED,Bayview,37.7359706424,-122.406138678
459,3562004,2324 MARKET ST,01/21/2015,PL FILED,Castro/Upper Market,37.7639208535,-122.433970061
460,4851017,1313 ARMSTRONG AV,11/27/2012,BP FILED,Bayview,37.7230787723,-122.387525705
461,3757045,44 MCLEA CT,03/26/2008,BP FILED,South of Market,37.7721152782,-122.408867755
462,3777045,598 BRANNAN STREET,08/23/2012,PL FILED,South of Market,37.7773375281,-122.39884701
463,3784007,510 TOWNSEND ST,08/08/2014,PL FILED,South of Market,37.7734452282,-122.400482576
464,7106052,327 CAPITOL AVE,01/03/2015,PL FILED,Ocean View,37.7135532107,-122.459302748
465,3913005,155 DE HARO STREET,08/15/2014,PL FILED,South of Market,37.76837375,-122.401442061
466,3774071,77 & 85 FEDERAL STREET,03/26/2013,PL FILED,South of Market,37.7828622741,-122.392342395
467,4059010,851 TENNESSEE ST,06/11/2013,PL FILED,Potrero Hill,37.7610224699,-122.389239052
468,3786038,501 BRANNAN ST,05/20/2013,PL FILED,South of Market,37.7777326188,-122.396686879
469,5518017,3159 MISSION ST,01/12/2015,BP FILED,Bernal Heights,37.7464633171,-122.418996602
470,3115043,625 MONTEREY BL,05/26/2010,PL FILED,Outer Mission,37.7312314157,-122.449550896
471,1156013,1660 MCALLISTER ST,01/26/2015,BP FILED,Western Addition,37.777952962,-122.439370388
472,5231002B,1995 EVANS AV,03/21/2013,PL FILED,Bayview,37.7460861362,-122.395526244
473,5576001,280 BAY SHORE BL,03/11/2009,BP FILED,Bayview,37.7434952951,-122.405316534
474,351001,1100 MARKET ST,09/18/2012,PL FILED,Downtown/Civic Center,37.7809005312,-122.412469932
475,4792029,1212 THOMAS AV,07/23/2008,BP FILED,Bayview,37.7266647832,-122.384144226
476,4229004,1275 MINNESOTA ST,02/06/2015,BP FILED,Potrero Hill,37.7542517211,-122.38938123
477,4335003I,2887 BRYANT ST,01/22/2015,BP FILED,Mission,37.7485267057,-122.408441763
478,3774072,85 FEDERAL ST,06/20/2013,BP FILED,South of Market,37.7827780368,-122.392485081
479,3703066,1053 MARKET ST,06/16/2014,PL FILED,South of Market,37.7810079386,-122.41115593
480,3521005,340 11TH ST,09/05/2014,PL FILED,South of Market,37.7711742186,-122.413545611
481,4830015,1579 WALLACE AV,02/26/2015,BP FILED,Bayview,37.7266936294,-122.390560184
482,0918002E,2328 NORTH POINT ST,02/26/2015,BP FILED,Marina,37.8027685942,-122.445704957
483,3639019,924 TREAT AV,02/25/2015,BP FILED,Mission,37.7552712051,-122.41356114
484,95024,1281 GREENWICH ST,10/17/2014,BP FILED,Russian Hill,37.800723887,-122.420682953
485,3750079,633 FOLSOM ST,10/08/2014,PL FILED,South of Market,37.7844712068,-122.397181491
486,6959028,4806 MISSION ST,11/03/2014,BP FILED,Outer Mission,37.72110642,-122.437871705
487,3794022,135 TOWNSEND ST,08/26/2014,PL FILED,South of Market,37.7798088033,-122.39100191
488,3808003,100 HOOPER ST,10/23/2014,BP FILED,South of Market,37.7686867795,-122.399391026
489,3779132,724 BRANNAN ST,02/04/2015,BP FILED,South of Market,37.7745141674,-122.40211087
490,671006,1450 FRANKLIN ST,04/14/2015,CONSTRUCTION,Western Addition,37.7880562921,-122.423253073
491,9900048,PIER 48,04/23/2013,PL FILED,South of Market,37.7757037635,-122.386135109
492,4110001,PIER 70,02/10/2015,PL FILED,Potrero Hill,37.7597541361,-122.386993514
493,4167004,1 TURNER TR,06/30/2010,PL FILED,Potrero Hill,37.7558204802,-122.395144145
494,6310001,1654 Sunnydale Ave,04/28/2010,PL FILED,Visitacion Valley,37.7130874301,-122.418990152
495,3752001,300 04TH ST,03/02/2015,BP FILED,South of Market,37.781741433,-122.401195892
496,3746001,201 FOLSOM ST,06/02/2015,CONSTRUCTION,South of Market,37.7886820165,-122.391851353
497,3911001,1 HENRY ADAMS ST,04/21/2015,CONSTRUCTION,South of Market,37.7692014322,-122.403472985
498,3783001,801 BRANNAN ST,09/26/2014,BP ISSUED,South of Market,37.7718238579,-122.403882632
499,3702391,"TRINITY PLAZA, PHASE III",10/31/2013,BP ISSUED,South of Market,37.7784387635,-122.413479759
500,3738004,280 BEALE ST,04/21/2015,CONSTRUCTION,Financial District,37.7887057388,-122.393608537
501,3756003,350 08TH ST,06/02/2015,CONSTRUCTION,South of Market,37.7736941666,-122.40965844
502,3736074,41 TEHAMA ST,11/14/2013,PL APPROVED,Financial District,37.7869780545,-122.396622398
503,8710007,718 LONG BRIDGE ST,06/01/2015,CONSTRUCTION,South of Market,37.7714244696,-122.394362815
504,4172022,1201-1225 TENNESSEE STREET,06/04/2015,CONSTRUCTION,Potrero Hill,37.7559279741,-122.388602973
505,813007,1390 MARKET ST,05/28/2009,PL APPROVED,Downtown/Civic Center,37.7772236125,-122.417361361
506,7148040,ONE CAPITOL AV,11/14/2014,CONSTRUCTION,Ocean View,37.7109310013,-122.46024013
507,0522002A,2601 VAN NESS AV,05/13/2014,PL APPROVED,Marina,37.7996624907,-122.424616674
508,3751033,768 HARRISON ST,03/21/2014,PL APPROVED,South of Market,37.7814955756,-122.399104912
509,4645018,860 INNES AV,06/24/2013,BP ISSUED,Bayview,37.7320092918,-122.375245428
510,6244036,469 RAYMOND AV,02/29/2012,BP REINSTATED,Visitacion Valley,37.7145818993,-122.412910462
511,1050007,1801 SCOTT ST,12/11/2014,BP ISSUED,Western Addition,37.786490862,-122.438601733
512,5577002,384 HOLLADAY AV,08/19/2009,PL APPROVED,Bernal Heights,37.7435911324,-122.406668234
513,3533165,85 BROSNAN ST,04/16/2015,CONSTRUCTION,Mission,37.7685007467,-122.423979455
514,3733008,250 4TH ST,09/12/2014,BP ISSUED,South of Market,37.7823601346,-122.402095995
515,8704004,360 BERRY ST,02/19/2015,BP ISSUED,South of Market,37.7730344812,-122.397263331
516,340002,19-25 MASON ST & 2-16 TURK ST,03/04/2014,PL APPROVED,Downtown/Civic Center,37.7837500979,-122.409494227
517,3575070,600 SOUTH VAN NESS AV,02/13/2014,PL APPROVED,Mission,37.7633181457,-122.417616929
518,670024,1433 BUSH ST,07/31/2014,PL APPROVED,Downtown/Civic Center,37.7883632548,-122.420841305
519,2347004G,2350 19TH AV,07/11/2014,BP ISSUED,Parkside,37.7440384463,-122.475368144
520,317005,436 OFARRELL ST,08/05/2008,BP FILED,Downtown/Civic Center,37.7861061159,-122.411998727
521,4591C046,470 INNES AV,01/28/2015,CONSTRUCTION,Bayview,37.7285185992,-122.369113395
522,1066028,3150 GEARY BL,09/17/2007,CONSTRUCTION,Presidio Heights,37.7820538116,-122.453037773
523,818049,443 LINDEN ST,10/10/2014,CONSTRUCTION,Western Addition,37.7759914577,-122.425230072
524,3706093,706 MISSION ST,07/31/2013,PL APPROVED,Financial District,37.7862060968,-122.40253249
525,818020,476 LINDEN ST,06/05/2015,CONSTRUCTION,Western Addition,37.776264419,-122.425767198
526,7331003,800 Brotherhood Way,09/11/2012,CONSTRUCTION,Lakeshore,37.7143856145,-122.473791822
527,811002,101 POLK ST,06/04/2015,CONSTRUCTION,Downtown/Civic Center,37.7777407353,-122.418318405
528,3509043,1321 Mission Street,03/31/2015,CONSTRUCTION,South of Market,37.7758744117,-122.414746094
529,794028,555 FULTON ST,05/28/2015,CONSTRUCTION,Western Addition,37.7781680419,-122.425752279
530,3794024,144 KING ST,06/05/2015,CONSTRUCTION,South of Market,37.7793212961,-122.390944425
531,4041009,630 INDIANA ST,12/24/2014,BP ISSUED,Potrero Hill,37.7621478295,-122.391861643
532,3767305,429 BEALE ST,05/14/2009,PL APPROVED,South of Market,37.7872476356,-122.390395593
533,331010,168 EDDY ST,03/26/2009,PL APPROVED,Downtown/Civic Center,37.7844526102,-122.410654754
534,807010,580 HAYES ST,03/31/2015,BP ISSUED,Western Addition,37.7767566777,-122.426029255
535,3507039,1420 MISSION ST,03/03/2015,CONSTRUCTION,South of Market,37.7752826673,-122.41649002
536,3510001,1415 MISSION ST,05/19/2015,CONSTRUCTION,South of Market,37.7749076317,-122.415919822
537,5431A001,5800 03RD ST,06/05/2015,CONSTRUCTION,Bayview,37.7251731211,-122.395520043
538,3833001,1000 16TH ST,09/07/2012,CONSTRUCTION,South of Market,37.7671083406,-122.396595168
539,857001,55 Laguna Street,05/28/2015,CONSTRUCTION,Western Addition,37.7723498556,-122.426278644
540,757025,1100 GOLDEN GATE AV,05/27/2015,CONSTRUCTION,Western Addition,37.7802585877,-122.429485283
541,4884025,2600 ARELIOUS WALKER DR,06/01/2015,CONSTRUCTION,Bayview,37.7193826402,-122.384934382
542,3703079,1036-1040 MISSION ST,06/26/2014,PL APPROVED,South of Market,37.7805850094,-122.409785547
543,4591C042,101 DONAHUE ST,06/08/2015,CONSTRUCTION,Bayview,37.729001486,-122.369639231
544,4991600,101 EXECUTIVE PARK BL,10/25/2010,BP FILED,Bayview,37.7126757528,-122.395446655
545,667016,1545 PINE ST,12/03/2013,BP FILED,Nob Hill,37.7892721056,-122.421211229
546,3748006,340 FREMONT ST,08/03/2012,BP FILED,South of Market,37.7871196058,-122.393231214
547,3749059,45 LANSING ST,06/02/2015,CONSTRUCTION,South of Market,37.7858734308,-122.393748741
548,1542039,430 03RD AV,10/24/2012,BP ISSUED,Inner Richmond,37.7804948011,-122.460691492
549,3747320,399 FREMONT ST,05/28/2015,CONSTRUCTION,South of Market,37.7873224333,-122.392223707
550,831023,PARCEL P - MARKET OCTAVIA,12/31/2014,CONSTRUCTION,Western Addition,37.7749621109,-122.425119564
551,3994001C,650 ILLINOIS ST,06/05/2014,PL APPROVED,Potrero Hill,37.7637856036,-122.388374828
552,4102026,645 TEXAS ST,01/27/2015,BP ISSUED,Potrero Hill,37.7579634092,-122.394571813
553,3753079,363 06TH ST,10/03/2012,PL APPROVED,South of Market,37.7780487572,-122.404446691
554,3753122,301 06TH ST,07/02/2013,PL APPROVED,South of Market,37.7784419135,-122.405086421
555,3753081,345 06TH ST,05/01/2014,PL APPROVED,South of Market,37.7781649025,-122.404677384
556,3542039,2198 MARKET ST,05/26/2015,CONSTRUCTION,Castro/Upper Market,37.7665267113,-122.4307685
557,3553008,490 SOUTH VAN NESS AV,06/01/2015,BP ISSUED,Mission,37.765479937,-122.417823852
558,785029,344 - 388 FULTON ST,04/08/2015,CONSTRUCTION,Downtown/Civic Center,37.7790720268,-122.422879662
559,4591C095,401 INNES AV,05/29/2015,CONSTRUCTION,Bayview,37.7281347241,-122.369442149
560,837003,1 FRANKLIN ST,05/15/2015,CONSTRUCTION,Downtown/Civic Center,37.7744289177,-122.421110191
561,619012,1860 VAN NESS AV,04/29/2015,CONSTRUCTION,Nob Hill,37.7929112562,-122.422413833
562,5470002,6424 3rd Street / 188 Key Avenue,09/02/2014,PL APPROVED,Bayview,37.7198496609,-122.397167688
563,8724001,1825 Owens Street,10/13/2010,CONSTRUCTION,Potrero Hill,37.7659084922,-122.390143076
564,2636025,SAN FRANCISCO OVERLOOK,03/07/2014,PL APPROVED,Inner Sunset,37.7589409884,-122.460781674
565,1073013,800 PRESIDIO AV,06/20/2014,BP ISSUED,Western Addition,37.7840451613,-122.445743262
566,3789003,72 TOWNSEND ST,05/05/2015,CONSTRUCTION,South of Market,37.78138809,-122.390352594
567,4059001A,815 TENNESSEE STREET,05/05/2014,BP FILED,Potrero Hill,37.7612283755,-122.389250748
568,4059009,2298 03RD ST,12/26/2014,BP APPROVED,Potrero Hill,37.7607982498,-122.388901958
569,4095018,896 DE HARO ST,05/28/2015,BP ISSUED,Potrero Hill,37.7583534705,-122.401258733
570,5744075,347 CRESCENT AV,01/28/2015,BP ISSUED,Bernal Heights,37.7351584181,-122.417732866
571,3729039,721 CLEMENTINA ST,12/24/2009,BP FILED,South of Market,37.7749694471,-122.410920329
572,5476014,3595 KEITH ST,06/05/2015,CONSTRUCTION,Bayview,37.7182552935,-122.398340088
573,4976019,750 JAMESTOWN AV,04/16/2009,CONSTRUCTION,Bayview,37.7156197588,-122.389168387
574,1052024,2655 BUSH ST,06/01/2015,CONSTRUCTION,Western Addition,37.7858213815,-122.440769978
575,3703012,527 STEVENSON ST,01/10/2014,PL APPROVED,South of Market,37.7809980311,-122.410168129
576,808039,450 HAYES STREET,06/04/2015,CONSTRUCTION,Western Addition,37.7770361122,-122.423879375
577,281003,832 SUTTER ST,03/20/2014,CONSTRUCTION,Downtown/Civic Center,37.7888008544,-122.414203852
578,3732071,468 CLEMENTINA ST,05/13/2015,CONSTRUCTION,South of Market,37.7798867634,-122.405696312
579,4591C093,201 DONAHUE ST,02/11/2015,CONSTRUCTION,Bayview,37.7283811843,-122.370199599
580,3197010,1446 OCEAN AV,03/19/2015,BP ISSUED,West of Twin Peaks,37.7245330008,-122.457881965
581,4591C069,198 COLEMAN ST,04/22/2015,CONSTRUCTION,Bayview,37.7282688322,-122.36834995
582,5825007,782-786 ANDOVER ST,11/08/2013,CONSTRUCTION,Bernal Heights,37.7332605672,-122.417118677
583,2038A019,1758 12TH AV,08/19/2014,BP ISSUED,Inner Sunset,37.7553555406,-122.468598722
584,3973002C,480 POTRERO AV,05/20/2015,CONSTRUCTION,Mission,37.7634776606,-122.407671364
585,629037,2101 & 2155 WEBSTER STREET,06/08/2015,CONSTRUCTION,Pacific Heights,37.790296049,-122.432771983
586,4224015,1004 MISSISSIPPI ST,01/16/2009,BP APPROVED,Potrero Hill,37.753619463,-122.394041823
587,620006,1601 LARKIN ST,11/15/2013,PL APPROVED,Nob Hill,37.7927787317,-122.419763491
588,4591C045,451 HUDSON AV,01/14/2015,CONSTRUCTION,Bayview,37.7287620644,-122.368894098
589,6473039,5739 MISSION ST,04/09/2013,PL APPROVED,Crocker Amazon,37.7096256898,-122.449034904
590,2799013,950 CORBETT AV,03/13/2007,CONSTRUCTION,Twin Peaks,37.7518316205,-122.443730285
591,856013,126 LAGUNA ST,03/26/2015,PL APPROVED,Western Addition,37.7722522798,-122.4251333
592,6634026,149 29TH ST,12/18/2014,CONSTRUCTION,Bernal Heights,37.7436509706,-122.423424882
593,2778013,851 CORBETT AV,11/18/2014,CONSTRUCTION,Twin Peaks,37.7530867323,-122.443289923
594,3719010,181 FREMONT ST,03/13/2015,CONSTRUCTION,Financial District,37.7896424402,-122.395220788
595,3962008,346 POTRERO AVENUE,02/18/2015,BP ISSUED,Mission,37.7651395989,-122.407816459
596,5943008,268 MADISON ST,01/08/2014,CONSTRUCTION,Excelsior,37.7257224458,-122.422803574
597,3703086,570 JESSIE ST,02/20/2015,BP ISSUED,South of Market,37.780779276,-122.410310274
598,3753008,374  5TH ST,12/20/2010,PL APPROVED,South of Market,37.779203111,-122.402443612
599,855016,1700 MARKET ST,06/22/2015,PL APPROVED,Western Addition,37.7729534153,-122.422447142
600,570011,1650 BROADWAY *,06/05/2015,CONSTRUCTION,Pacific Heights,37.7959125178,-122.424470955
601,2623006,376 CASTRO ST,05/17/2013,BP FILED,Castro/Upper Market,37.7629212526,-122.435500091
602,3555036,1785 15TH ST,12/18/2013,BP ISSUED,Mission,37.7662063231,-122.423806248
603,6969001,5050 MISSION ST,03/13/2014,BP APPROVED,Outer Mission,37.7177327694,-122.44058783
604,3542041,2100 MARKET ST,07/07/2014,PL APPROVED,Castro/Upper Market,37.7675094261,-122.429431986
605,2515001,2800 SLOAT BL,12/30/2014,BP ISSUED,Parkside,37.7358537739,-122.504737332
606,3731001,200-214 06TH ST,01/30/2014,BP ISSUED,South of Market,37.779379391,-122.407101573
607,3726103,114 07th Street,06/19/2014,PL APPROVED,South of Market,37.7790728702,-122.41031238
608,1450008,5400 GEARY BL,05/22/2015,BP APPROVED,Inner Richmond,37.7811065559,-122.47759248
609,4591C099,50 JERROLD AV,04/03/2015,CONSTRUCTION,Bayview,37.7276515675,-122.369239611
610,28014,1255- 1275 COLUMBUS AV,04/22/2014,BP ISSUED,Russian Hill,37.8057080604,-122.418379666
611,3731003,226 06TH ST,10/20/2014,CONSTRUCTION,South of Market,37.7791590996,-122.406826478
612,3617008,1050 VALENCIA ST,04/29/2015,CONSTRUCTION,Mission,37.7559439906,-122.421317652
613,4591C094,201 FRIEDELL ST,05/05/2015,CONSTRUCTION,Bayview,37.7281384034,-122.369772515
614,4591C059,101 AVOCET WY,04/03/2015,CONSTRUCTION,Bayview,37.7286625925,-122.368467131
615,3753042,259 CLARA ST,05/13/2015,BP ISSUED,South of Market,37.778347076,-122.403505934
616,3594016,3360 20TH ST,10/21/2010,BP APPROVED,Mission,37.7590266075,-122.416153463
617,303014,875 POST ST,07/20/2012,BP ISSUED,Downtown/Civic Center,37.7870169294,-122.416171148
618,3651017,3820 24TH STREET,06/02/2015,CONSTRUCTION,Noe Valley,37.7519065494,-122.427987934
619,334008,430 EDDY ST,03/07/2005,PL APPROVED,Downtown/Civic Center,37.7839367135,-122.41483388
620,3549064,1450 15TH ST,05/29/2015,BP ISSUED,Mission,37.7670915644,-122.416833421
621,3576090,3420 18TH ST,05/08/2015,BP ISSUED,Mission,37.7620042484,-122.419986074
622,5457037,2895 SAN BRUNO AV,08/19/2013,BP ISSUED,Excelsior,37.7255411478,-122.402448713
623,4591C057,100 AVOCET WY,05/28/2015,CONSTRUCTION,Bayview,37.7287848367,-122.368682266
624,339006,130 TURK ST,11/04/2013,CONSTRUCTION,Downtown/Civic Center,37.7834131336,-122.411457161
625,3547032,49 JULIAN AV,01/26/2012,PL APPROVED,Mission,37.7674173527,-122.420867824
626,937028,"2419, 2421 & 2435 LOMBARD ST",04/13/2012,BP FILED,Marina,37.7988614311,-122.441502985
627,3753096,233 SHIPLEY ST,03/16/2015,BP ISSUED,South of Market,37.7791316715,-122.403448728
628,512026,2353 - 2347 LOMBARD ST,05/21/2015,CONSTRUCTION,Marina,37.7990754072,-122.439930039
629,330004,33 POWELL ST,05/28/2015,CONSTRUCTION,Downtown/Civic Center,37.7848850007,-122.408148824
630,3987010,140 PENNSYLVANIA AV,08/06/2014,BP ISSUED,Potrero Hill,37.7647823789,-122.39410864
631,4591C098,200 COLEMAN ST,06/08/2015,CONSTRUCTION,Bayview,37.7276478867,-122.368909251
632,4591C068,421 HUDSON AV,05/20/2015,CONSTRUCTION,Bayview,37.728496005,-122.368425864
633,1153020,1823 TURK ST,04/08/2015,BP ISSUED,Western Addition,37.7792856504,-122.43938144
634,6176011,23 SPARTA ST,05/18/2015,CONSTRUCTION,Visitacion Valley,37.7177938405,-122.403329903
635,6655030,176 RANDALL ST,02/11/2014,BP APPROVED,Glen Park,37.7399317856,-122.427287506
636,1511034,546 34TH AV,04/06/2015,CONSTRUCTION,Outer Richmond,37.7787104203,-122.493981927
637,256003,621 STOCKTON ST,05/10/2012,PL APPROVED,Chinatown,37.7916140466,-122.407749662
638,6534029,1225 DOLORES ST,04/03/2015,BP ISSUED,Mission,37.7498370308,-122.424539848
639,101004,1741 POWELL ST,02/24/2015,BP ISSUED,Russian Hill,37.8006826245,-122.411287504
640,7106058,200 BROAD ST,06/14/2012,BP ISSUED,Ocean View,37.7133769842,-122.459183171
641,6951021,285 OCEAN AV,11/18/2009,PL APPROVED,Outer Mission,37.7229989267,-122.442788043
642,776035,1470 MCALLISTER ST,05/22/2015,CONSTRUCTION,Western Addition,37.7782758921,-122.436398169
643,798010,940 GROVE ST,06/14/2012,BP APPROVED,Western Addition,37.776880075,-122.432755772
644,7520033,70 GOLD MINE DR,07/26/2011,BP FILED,Noe Valley,37.7440929891,-122.437331482
645,1456013,471 24TH AV,02/20/2013,BP REINSTATED,Outer Richmond,37.7807450356,-122.484038409
646,1857036,721 KIRKHAM ST,05/29/2015,CONSTRUCTION,Inner Sunset,37.7599510685,-122.468622899
647,3518006,248 - 252 09TH ST,02/09/2015,CONSTRUCTION,South of Market,37.7741768194,-122.412583504
648,4991277,833-881 Jamestown,09/17/2007,CONSTRUCTION,Bayview,37.7171741763,-122.392222474
649,5918029,419 BOWDOIN ST,02/17/2009,PL APPROVED,Excelsior,37.7300573119,-122.412029699
650,524031,1338 FILBERT ST,01/31/2011,BP ISSUED,Russian Hill,37.8001114619,-122.421503537
651,1084001B,1 Stanyan Street,12/14/2007,BP FILED,Inner Richmond,37.7810723638,-122.456521625
652,3211010A,270 OCEAN AV,04/09/2015,CONSTRUCTION,Outer Mission,37.7234742968,-122.442378087
653,150054,1020 BROADWAY,03/24/2014,PL APPROVED,Russian Hill,37.7972167611,-122.413810539
654,3598028,651 DOLORES ST,12/12/2013,PL APPROVED,Mission,37.7588102177,-122.425389793
655,7113022,270 CAPITOL AV,04/03/2015,CONSTRUCTION,Ocean View,37.7127546806,-122.458787398
656,6630031,577 29TH ST,05/05/2011,CONSTRUCTION,Noe Valley,37.743090941,-122.43265852
657,2038A013,1769 11TH AV,10/07/2014,BP ISSUED,Inner Sunset,37.7552366922,-122.468174308
658,1510022,4324 ANZA ST,11/09/2012,CONSTRUCTION,Outer Richmond,37.7779515902,-122.494749861
659,4022022,685 FLORIDA ST,10/27/2014,CONSTRUCTION,Mission,37.7607075057,-122.410677765
660,1432037,230 02ND AV,01/31/2013,PL APPROVED,Inner Richmond,37.7844006876,-122.459897138
661,3509005,140 09TH ST,01/29/2015,CONSTRUCTION,South of Market,37.7754851363,-122.414257898
662,2040001,1701 09TH AV,01/08/2013,CONSTRUCTION,Inner Sunset,37.7563826338,-122.466062373
663,6250037,95 LELAND AV,03/05/2010,BP REINSTATED,Visitacion Valley,37.7117207137,-122.405714139
664,1640051,327 BALBOA ST,02/26/2015,CONSTRUCTION,Inner Richmond,37.7770597282,-122.46238535
665,3511066,35-41 LAFAYETTE ST,10/21/2013,PL APPROVED,South of Market,37.7731984003,-122.417172694
666,4094024,946 RHODE ISLAND ST,05/28/2015,CONSTRUCTION,Potrero Hill,37.7579163677,-122.40222487
667,3575063,3249 17TH ST,03/17/2014,BP ISSUED,Mission,37.7632790467,-122.418264403
668,926008,3305 BRODERICK ST,06/02/2015,CONSTRUCTION,Marina,37.8009215983,-122.445031777
669,7099009,5670 MISSION ST,06/04/2015,CONSTRUCTION,Outer Mission,37.7104790934,-122.448632444
670,4591C070,420 INNES AV,04/30/2015,CONSTRUCTION,Bayview,37.7282525416,-122.368645161
671,212031,135 WETMORE ST,06/20/2013,BP REINSTATED,Nob Hill,37.7941998905,-122.410648237
672,852044,124-126 Haight Street,03/26/2015,PL APPROVED,Western Addition,37.7731265056,-122.424492152
673,6793011,1794 SAN JOSE AV,10/01/2008,BP FILED,Outer Mission,37.7291965854,-122.440091365
674,2613020,2317 15TH ST,09/24/2010,BP FILED,Castro/Upper Market,37.7654562722,-122.43618796
675,5556019,162 BREWSTER ST,05/21/2014,CONSTRUCTION,Bernal Heights,37.744103487,-122.407399596
676,2807040,429 GRAND VIEW AV,10/16/2014,PL APPROVED,Noe Valley,37.7519252639,-122.442288385
677,1569015,2514 BALBOA ST,02/04/2015,BP REINSTATED,Outer Richmond,37.7764810837,-122.485979198
678,3625011A,3932 23RD ST,06/01/2015,BP APPROVED,Noe Valley,37.7533535107,-122.430628724
679,1901012,1659 42ND AV,06/04/2015,BP ISSUED,Outer Sunset,37.7557675516,-122.501628561
680,5948026A,3 NAPLES ST,05/20/2015,CONSTRUCTION,Excelsior,37.7284069324,-122.425151273
681,7088051,382 RANDOLPH ST,11/28/2011,BP APPROVED,Ocean View,37.7144950319,-122.4659246
682,4224018,1036 MISSISSIPPI ST,12/01/2009,BP APPROVED,Potrero Hill,37.753277182,-122.394008585
683,4937018,1014 GILMAN AV,10/22/2013,BP ISSUED,Bayview,37.7185391959,-122.388232571
684,3594009,2374 FOLSOM ST,05/10/2012,CONSTRUCTION,Mission,37.7593457298,-122.41508754
685,4108010,1067 TENNESSEE ST,09/08/2010,BP REINSTATED,Potrero Hill,37.7584373354,-122.388987498
686,3588001C,3527 18TH ST,02/03/2012,PL APPROVED,Mission,37.7614767353,-122.422238684
687,0516028A,136 PIXLEY ST,01/29/2013,CONSTRUCTION,Marina,37.7988259196,-122.434803197
688,6593006,230 DUNCAN ST,02/05/2008,CONSTRUCTION,Noe Valley,37.7464244615,-122.425559622
689,6620014,440 29TH ST,04/01/2014,CONSTRUCTION,Noe Valley,37.7437485149,-122.42988606
690,4013007,526 UTAH ST,11/19/2013,BP ISSUED,Mission,37.7626818843,-122.406562635
691,1219008,1122 PAGE ST,05/31/2011,BP ISSUED,Haight Ashbury,37.7721654228,-122.439365072
692,6173005,1123 GIRARD ST,01/14/2014,BP REINSTATED,Visitacion Valley,37.718676961,-122.400653914
693,3547027,80 JULIAN AV,10/27/2011,BP ISSUED,Mission,37.766972379,-122.421370107
694,3755096,5 HALLAM ST,01/09/2015,BP ISSUED,South of Market,37.7758086205,-122.408391639
695,1402023,3038 CLEMENT ST,10/27/2014,BP ISSUED,Outer Richmond,37.7819419474,-122.492030521
696,2845005,70 CRESTLINE DR,05/15/2013,BP ISSUED,Twin Peaks,37.7515802786,-122.445910055
697,528008,1662-1664 Union St.,06/25/2007,BP FILED,Marina,37.7984930455,-122.426705375
698,1179024A,1631 MCALLISTER ST,05/07/2015,CONSTRUCTION,Western Addition,37.7774168542,-122.43907872
699,5577009,195 BREWSTER ST,09/04/2014,BP ISSUED,Bernal Heights,37.7434855956,-122.407223364
700,6531022,353 SAN JOSE AV,05/15/2015,CONSTRUCTION,Mission,37.7495347232,-122.421077325
701,6574013,3178 MISSION ST,10/07/2013,PL APPROVED,Bernal Heights,37.7464020297,-122.419774477
702,1736033,1208 15TH AV,06/06/2014,CONSTRUCTION,Inner Sunset,37.7652505851,-122.472542324
703,5066B003,2175 BAYSHORE BL,11/23/2009,BP APPROVED,Visitacion Valley,37.7123955066,-122.400940472
704,6727016,564 CHENERY ST,04/02/2008,BP FILED,Glen Park,37.7349365478,-122.431616515
705,2406037,2451 19TH AV,11/18/2014,CONSTRUCTION,Parkside,37.7420552662,-122.475959703
706,26030,827 NORTH POINT ST,06/03/2014,CONSTRUCTION,Russian Hill,37.8053690329,-122.420870282
707,3196006,1524 OCEAN AV,03/30/2015,BP REINSTATED,West of Twin Peaks,37.724657205,-122.458706906
708,2374019,3534 TARAVAL ST,02/26/2009,BP APPROVED,Parkside,37.742042792,-122.504188551
709,1412019,2034 CLEMENT ST,04/10/2014,CONSTRUCTION,Outer Richmond,37.7825240164,-122.481284263
710,7135048,3501 ALEMANY BL,05/27/2015,CONSTRUCTION,Ocean View,37.7112364406,-122.463673634
711,2408001,701 TARAVAL ST,04/03/2015,PL APPROVED,Parkside,37.7428890057,-122.473713118
712,2620119,188 MUSEUM WY,11/17/2014,CONSTRUCTION,Castro/Upper Market,37.7636540292,-122.439141678
713,5880023,2350 SAN BRUNO AV,03/20/2013,CONSTRUCTION,Excelsior,37.7331226265,-122.40620658
714,2628026,560 ROOSEVELT WY,05/26/2015,CONSTRUCTION,Castro/Upper Market,37.7625686195,-122.444928436
715,3576018,39 SAN CARLOS ST,03/05/2015,CONSTRUCTION,Mission,37.7621585217,-122.419957479
716,3726063,534 - 536 NATOMA ST,02/12/2015,BP FILED,South of Market,37.779637704,-122.40864406
717,2823A016,36 KNOLLVIEW WAY,07/31/2014,PL FILED,Twin Peaks,37.7498409731,-122.450719087
718,8722001,GOLDEN STATE WARRIORS  EVENT CENTER,12/12/2014,PL FILED,South of Market,37.7679955603,-122.387549427
719,3754042,12 SHERMAN ST,11/26/2012,BP ISSUED,South of Market,37.7770094,-122.406803895
720,3753076,272 CLARA ST,12/04/2013,PL APPROVED,South of Market,37.7783122643,-122.404111973
721,4143008,948 HAMPSHIRE ST,03/12/2009,BP ISSUED,Mission,37.7568882292,-122.407954839
722,3641076,930 SHOTWELL ST,04/24/2015,CONSTRUCTION,Mission,37.7530323549,-122.415540892
723,3611062,658-666 SHOTWELL ST,10/10/2013,PL APPROVED,Mission,37.7578281845,-122.416001055
724,5858024,194 SWEENY ST,03/09/2015,BP ISSUED,Excelsior,37.7327266289,-122.409353347
725,297009,693 SUTTER ST,01/03/2013,CONSTRUCTION,Downtown/Civic Center,37.7886288233,-122.411648797
726,1710006,1235 40TH AV,12/29/2014,CONSTRUCTION,Outer Sunset,37.7637264239,-122.500037942
727,665012,1636 BUSH ST,03/02/2012,BP FILED,Western Addition,37.7883725271,-122.424292095
728,987033,3650 WASHINGTON ST,02/22/2012,BP ISSUED,Presidio Heights,37.7894358755,-122.453441442
729,3540006,148 NOE ST,05/28/2015,BP ISSUED,Castro/Upper Market,37.7667601125,-122.433651145
730,5598006,367 BAY SHORE BL,06/05/2015,CONSTRUCTION,Bayview,37.7414088069,-122.405603766
731,2394046,2115 TARAVAL ST,12/31/2012,BP ISSUED,Parkside,37.7422219001,-122.488892905
732,4160003,910 CAROLINA ST,03/20/2015,BP ISSUED,Potrero Hill,37.7569589121,-122.400190659
733,7106059,202 BROAD ST,08/20/2014,BP ISSUED,Ocean View,37.7133764123,-122.459287502
734,4040025,333 PENNSYLVANIA AV,06/24/2013,BP REINSTATED,Potrero Hill,37.7621002996,-122.393219344
735,1643051,25 BALBOA ST,01/12/2009,PL APPROVED,Inner Richmond,37.7772083458,-122.459125555
736,1672018,874 30TH AV,01/26/2009,BP ISSUED,Outer Richmond,37.772832711,-122.489251816
737,3094055,690 MONTEREY BLVD,05/14/2015,BP ISSUED,Outer Mission,37.7318094277,-122.450854368
738,6758032,807 BOSWORTH ST,05/15/2015,BP ISSUED,Outer Mission,37.7336698917,-122.436127235
739,6512016,383 FAIR OAKS ST,09/29/2014,CONSTRUCTION,Mission,37.7506766356,-122.423587993
740,2654031,31 URANUS TR,01/06/2014,BP ISSUED,Castro/Upper Market,37.761414699,-122.445239004
741,3191004,645 FAXON AV,05/20/2015,BP ISSUED,West of Twin Peaks,37.725345945,-122.460147513
742,5683012,906 CORTLAND AV,05/14/2015,BP APPROVED,Bernal Heights,37.7387730917,-122.413613603
743,1537027,470 08TH AV,09/18/2006,BP FILED,Inner Richmond,37.779566489,-122.465998617
744,6428007,103 WALBRIDGE ST,01/30/2012,BP REINSTATED,Crocker Amazon,37.709059376,-122.423832506
745,1565006A,551 22ND AV,10/03/2014,CONSTRUCTION,Outer Richmond,37.7773278535,-122.481639629
746,1857037,715 KIRKHAM ST,05/29/2015,CONSTRUCTION,Inner Sunset,37.7599548594,-122.468536549
747,1152018,1880 GOLDEN GATE AV,12/23/2014,BP ISSUED,Western Addition,37.7785793633,-122.441528011
748,1185026,1681 Fulton St,04/22/2015,CONSTRUCTION,Haight Ashbury,37.7758325579,-122.444381577
749,754012,1022 PIERCE ST,05/22/2015,CONSTRUCTION,Western Addition,37.7795985794,-122.435023114
750,2086007A,1966 GREAT HY,04/10/2009,BP FILED,Outer Sunset,37.749775818,-122.507788431
751,1068004,74 BLAKE ST,04/16/2015,CONSTRUCTION,Presidio Heights,37.7825672043,-122.450923526
752,4096005,746 CAROLINA ST,03/22/2010,CONSTRUCTION,Potrero Hill,37.7591919703,-122.400404044
753,4085026,857 ALABAMA ST,11/02/2012,CONSTRUCTION,Mission,37.7581929082,-122.411213594
754,1050006A,1825 and 1827 Scott Street,10/23/2013,PL APPROVED,Western Addition,37.7867365132,-122.438722287
755,3612055,748 TREAT AV,03/26/2015,CONSTRUCTION,Mission,37.7581089328,-122.413834836
756,41039,377 BAY ST,12/17/2007,BP FILED,North Beach,37.8054974812,-122.413148025
757,1453039,322 22ND AV,03/03/2011,PL APPROVED,Outer Richmond,37.781694425,-122.481297436
758,3613053,811 TREAT AV,06/12/2015,PL APPROVED,Mission,37.7568721169,-122.413083303
759,5826002,104 BACHE ST,10/03/2014,CONSTRUCTION,Bernal Heights,37.7337909391,-122.417781908
760,6168013,67 BISHOP ST,12/31/2009,BP ISSUED,Visitacion Valley,37.7180097077,-122.404207609
761,6621030,497 VALLEY ST,02/03/2015,CONSTRUCTION,Noe Valley,37.7439918007,-122.433052798
762,6592034,389 27TH ST,10/29/2007,CONSTRUCTION,Noe Valley,37.7465576502,-122.428712195
763,5577012,175 BREWSTER ST,02/05/2015,BP ISSUED,Bernal Heights,37.7436742631,-122.407148813
764,519029,3020 LAGUNA ST,02/27/2013,CONSTRUCTION,Marina,37.7991913662,-122.430627728
765,5327038,1665 PALOU AV,12/11/2014,CONSTRUCTION,Bayview,37.7344869026,-122.392339544
766,77004,30 EDITH ST,06/06/2014,BP REINSTATED,North Beach,37.8029085719,-122.408605284
767,6022014,395 ATHENS ST,06/11/2014,CONSTRUCTION,Excelsior,37.7216831937,-122.428052699
768,5926021,165 - 167 BRUSSELS ST,10/03/2014,CONSTRUCTION,Excelsior,37.730033066,-122.406462873
769,2700012,4546 19TH ST,11/14/2014,CONSTRUCTION,Castro/Upper Market,37.7592279315,-122.440054554
770,3589026,161 SAN CARLOS ST,11/23/2009,BP ISSUED,Mission,37.7608311319,-122.41982828
771,3589091,144 LEXINGTON ST,10/23/2014,BP FILED,Mission,37.7609862074,-122.421229845
772,3590056,355 CAPP ST,04/06/2009,BP FILED,Mission,37.7610238136,-122.417870707
773,6771032,279 MONTEREY BL,01/16/2015,CONSTRUCTION,Outer Mission,37.7312815606,-122.441527524
774,3733020A,854 FOLSOM ST,06/14/2010,BP ISSUED,South of Market,37.7812806826,-122.402697842
775,5825008,790 ANDOVER ST,03/19/2015,CONSTRUCTION,Bernal Heights,37.7332602758,-122.417201106
776,1069045,2882 -  2890 GEARY BLVD,02/05/2014,BP ISSUED,Presidio Heights,37.782379776,-122.44986347
777,1422016,287 11TH AV,07/18/2011,BP ISSUED,Inner Richmond,37.7830434665,-122.470126928
778,6549021,168 CLIPPER ST,09/12/2014,CONSTRUCTION,Noe Valley,37.7494386905,-122.428908411
779,3618071,990 GUERRERO ST,03/07/2012,CONSTRUCTION,Mission,37.755363788,-122.423547247
780,1265009,338 CARL ST,06/30/2011,CONSTRUCTION,Inner Sunset,37.7654152098,-122.455223641
781,3731119,49 MOSS ST,05/20/2015,CONSTRUCTION,South of Market,37.7779549451,-122.407986222
782,818048,447 LINDEN ST,10/10/2014,CONSTRUCTION,Western Addition,37.775960502,-122.425320174
783,1154023,7 SEYMOUR ST,10/12/2010,CONSTRUCTION,Western Addition,37.7793331884,-122.438057653
784,1801040,1322 47TH AV,05/07/2014,BP ISSUED,Outer Sunset,37.7618364605,-122.506772806
785,2936A001D,69 GARCIA AV,08/20/2012,BP FILED,West of Twin Peaks,37.7440061075,-122.459291052
786,5338018,1756 REVERE AV,06/01/2015,CONSTRUCTION,Bayview,37.7334393463,-122.392753316
787,2804041,4141 23RD ST,12/05/2013,CONSTRUCTION,Noe Valley,37.7525968891,-122.435100015
788,5504001H,3119 HARRISON ST,05/03/2011,CONSTRUCTION,Bernal Heights,37.7478369456,-122.411127487
789,2623028,4126 17TH ST,01/26/2015,BP ISSUED,Castro/Upper Market,37.7626118963,-122.437954319
790,5991002,302 UNIVERSITY ST,08/06/2014,BP REINSTATED,Excelsior,37.7262792483,-122.414233256
791,6517022,2881 MISSION ST,12/04/2012,BP FILED,Mission,37.750966915,-122.417976255
792,2750035,311 EUREKA ST,08/06/2014,CONSTRUCTION,Castro/Upper Market,37.757123349,-122.437601736
793,1453013,363 21ST AV,03/24/2015,BP ISSUED,Outer Richmond,37.7810277199,-122.480833756
794,4152046,1078 HAMPSHIRE ST,02/21/2012,CONSTRUCTION,Mission,37.7548719424,-122.407759586
795,6349021,717 PARIS ST,04/22/2015,CONSTRUCTION,Excelsior,37.7174387818,-122.437801596
796,7003014,333 RALSTON ST,06/01/2015,BP ISSUED,Ocean View,37.718474541,-122.469218704
797,0634016A,2695 SACRAMENTO ST,11/29/2010,PL APPROVED,Pacific Heights,37.789245032,-122.437106314
798,3610032,500 CAPP ST,05/27/2015,CONSTRUCTION,Mission,37.7585623509,-122.418185864
799,1642036,658 03RD AV,05/11/2015,CONSTRUCTION,Inner Richmond,37.7762910124,-122.460386854
800,2625007A,70 DOUGLASS ST,02/22/2008,CONSTRUCTION,Castro/Upper Market,37.7627856341,-122.439735492
801,1464014,446 33RD AV,12/04/2014,CONSTRUCTION,Outer Richmond,37.7807382713,-122.493053547
802,6943040,1172 PLYMOUTH AV,02/06/2015,BP ISSUED,Ocean View,37.7231997286,-122.455831938
803,6272018,4847 MISSION ST,02/25/2009,CONSTRUCTION,Excelsior,37.7207052437,-122.437474235
804,6619022,239 Valley Street,12/21/2012,CONSTRUCTION,Noe Valley,37.7441519759,-122.428406796
805,4282A023,2207 25TH ST,03/12/2013,CONSTRUCTION,Potrero Hill,37.7518232176,-122.40079901
806,3538036,81 NOE ST,10/01/2012,BP APPROVED,Castro/Upper Market,37.7678968327,-122.433131536
807,5654023,209 PRENTISS ST,03/19/2015,BP ISSUED,Bernal Heights,37.7399931203,-122.411893086
808,5948026B,5 NAPLES ST,05/28/2015,CONSTRUCTION,Excelsior,37.728348049,-122.425195729
809,6581060,4103 CESAR CHAVEZ ST,06/13/2014,BP ISSUED,Noe Valley,37.7472771233,-122.431727289
810,6580018,456 27th Street,02/04/2015,BP REINSTATED,Noe Valley,37.7469297357,-122.430509326
811,226007,605 KEARNY ST,08/17/2012,CONSTRUCTION,Chinatown,37.7937095167,-122.404824151
812,6168012,71 BISHOP ST,12/31/2009,BP ISSUED,Visitacion Valley,37.7179447831,-122.404235732
813,6255006,62 SCHWERIN ST,08/19/2011,CONSTRUCTION,Visitacion Valley,37.7126301814,-122.410774268
814,4224027,1510 25TH ST,08/19/2011,BP ISSUED,Potrero Hill,37.7526811564,-122.394124165
815,7016023,652 LAKEVIEW AV,06/24/2013,CONSTRUCTION,Ocean View,37.7184362783,-122.457740671
816,1534026,474 11TH AV,03/10/2008,BP FILED,Inner Richmond,37.7793527795,-122.469201916
817,5577010,193 BREWSTER ST,09/04/2014,BP ISSUED,Bernal Heights,37.7435484847,-122.407198514
818,7173011,60 SANTA BARBARA AV,05/04/2015,BP ISSUED,Ocean View,37.7083664774,-122.465158536
819,6075001B,824 BRAZIL AV,04/17/2015,BP ISSUED,Excelsior,37.7212767877,-122.428107783
820,6616010,18 VALLEY ST,04/03/2013,BP ISSUED,Bernal Heights,37.7449851008,-122.422750587
821,6048002,2724 SAN BRUNO AV,02/19/2014,BP ISSUED,Excelsior,37.72718286,-122.403750584
822,1505027,536 40TH AV,02/04/2014,CONSTRUCTION,Outer Richmond,37.7786155771,-122.500422533
823,1690032,836 48TH AV,11/08/2011,BP REINSTATED,Outer Richmond,37.7726035165,-122.508578299
824,1684002I,6524 FULTON ST,06/03/2011,CONSTRUCTION,Outer Richmond,37.772017374,-122.501833777
825,4103036,605 MISSISSIPPI ST,01/23/2009,PL APPROVED,Potrero Hill,37.7588111296,-122.39391061
826,4210013,1196 HAMPSHIRE ST,07/03/2013,CONSTRUCTION,Mission,37.7532979594,-122.407606525
827,2659054,349 CORBETT AV,09/16/2014,BP ISSUED,Castro/Upper Market,37.7597470112,-122.445064718
828,5410008,56 LUCY ST,05/26/2015,CONSTRUCTION,Bayview,37.7300619959,-122.393718478
829,3621081,3721 21ST ST,05/26/2015,BP ISSUED,Noe Valley,37.7560813188,-122.430637204
830,5618011,128 ELSIE ST,05/22/2015,BP ISSUED,Bernal Heights,37.7425784612,-122.418057546
831,2706035,1310 STANYAN ST,07/05/2012,CONSTRUCTION,Twin Peaks,37.7584092211,-122.451006675
832,5258027,1411 HUDSON AV,03/16/2015,CONSTRUCTION,Bayview,37.737845268,-122.384928038
833,1805006,1433 48TH AV,04/13/2015,BP ISSUED,Outer Sunset,37.759658326,-122.508349418
834,3637010,1150 SOUTH VAN NESS AV,05/20/2014,BP APPROVED,Mission,37.7547084784,-122.416839935
835,4829007,1560 WALLACE AV,02/28/2014,BP APPROVED,Bayview,37.7273245523,-122.390304857
836,1411022,212 23RD AV,12/21/2011,CONSTRUCTION,Outer Richmond,37.7836464498,-122.482559933
837,1510013,563 34TH AV,07/01/2010,BP ISSUED,Outer Richmond,37.7784064073,-122.494618323
838,1618007,762 27TH AV,12/10/2009,PL APPROVED,Outer Richmond,37.7750242008,-122.486187735
839,1269167,1055 Ashbury St,02/17/2015,BP ISSUED,Haight Ashbury,37.763692212,-122.446738064
840,2821021,1240 TWIN PEAKS BL,05/26/2010,BP APPROVED,Twin Peaks,37.7464455015,-122.450708127
841,1386015,279 26TH AV,02/24/2014,CONSTRUCTION,Outer Richmond,37.7842361111,-122.48644286
842,1198004,417 LYON ST,03/17/2009,BP ISSUED,Haight Ashbury,37.7749254293,-122.443190264
843,4219004,1036 WISCONSIN ST,10/06/2009,PL APPROVED,Potrero Hill,37.7541910449,-122.398955511
844,6208056,138 ALPHA ST,04/25/2013,BP ISSUED,Visitacion Valley,37.7141663807,-122.404348866
845,5610029A,10 LUNDYS LN,12/02/2011,CONSTRUCTION,Bernal Heights,37.7456354526,-122.417946027
846,1686033,834 44TH AV,06/29/2006,CONSTRUCTION,Outer Richmond,37.7728000128,-122.504299628
847,3775063,136 SOUTH PARK AV,05/13/2015,BP APPROVED,South of Market,37.7814997627,-122.394675086
848,5525018,98 NORWICH ST,05/05/2008,BP FILED,Bernal Heights,37.7451618262,-122.412106279
849,2821022,1230 TWIN PEAKS BL,05/26/2010,BP APPROVED,Twin Peaks,37.7464361978,-122.450488511
850,1222043,1535 OAK ST,04/23/2015,CONSTRUCTION,Haight Ashbury,37.7719278024,-122.444600017
851,2016016,1763 33RD AV,04/22/2015,BP ISSUED,Outer Sunset,37.7542694773,-122.491853436
852,6662007,22 FAIRMOUNT ST,05/08/2015,CONSTRUCTION,Glen Park,37.7392348354,-122.425177647
853,5896022,701 SILVER AV,12/19/2014,BP ISSUED,Excelsior,37.729093278,-122.421656389
854,6478031,495 MORSE ST,05/15/2009,BP ISSUED,Crocker Amazon,37.7120502096,-122.442239063
855,1334040,107 24TH AV,02/27/2013,CONSTRUCTION,Outer Richmond,37.7872788648,-122.484428508
856,5859040,230 SWEENY ST,12/22/2014,CONSTRUCTION,Excelsior,37.7324923497,-122.410120859
857,3552008,1936 FOLSOM ST,06/06/2014,BP APPROVED,Mission,37.7663134184,-122.415758776
858,3621030,895 NOE ST,05/27/2015,CONSTRUCTION,Noe Valley,37.7549105401,-122.431871189
859,69011,2626 LARKIN ST,04/15/2015,CONSTRUCTION,Russian Hill,37.8022379195,-122.421051408
860,1055021,2909 BUSH ST,01/20/2014,PL APPROVED,Western Addition,37.7850790252,-122.445522668
861,3583082,4035 18TH ST,10/17/2014,CONSTRUCTION,Castro/Upper Market,37.7607840656,-122.433560029
862,1067028,66 COOK ST,05/01/2015,BP ISSUED,Presidio Heights,37.7826086878,-122.451979475
863,4152016,1076 HAMPSHIRE ST,02/21/2012,CONSTRUCTION,Mission,37.7549404074,-122.407766079
864,6968008,5000 MISSION ST,07/30/2013,BP FILED,Outer Mission,37.7185445002,-122.439782131
865,6612026,2127 CASTRO ST,05/20/2015,CONSTRUCTION,Noe Valley,37.7444471015,-122.433100363
866,1811031,1458 43RD AV,05/18/2015,CONSTRUCTION,Outer Sunset,37.7594784658,-122.50230731
867,2709065,21 MOUNTAIN SPRING AV,05/21/2013,BP ISSUED,Twin Peaks,37.7579672028,-122.448776123
868,3576039,35 LEXINGTON ST,05/29/2015,CONSTRUCTION,Mission,37.7621855356,-122.420650154
869,6604039,645 DUNCAN ST,01/23/2014,BP ISSUED,Noe Valley,37.7454070525,-122.434245251
870,119025,1812 TAYLOR ST,07/13/2011,BP ISSUED,Russian Hill,37.7991719972,-122.413752463
871,25017,721 BEACH ST,05/28/2015,CONSTRUCTION,Russian Hill,37.8063175992,-122.420950209
872,5305001,1701 MCKINNON AVE,08/21/2014,BP APPROVED,Bayview,37.7368266487,-122.391390473
873,2821010,83 PANORAMA DR,03/17/2015,CONSTRUCTION,Twin Peaks,37.7469380522,-122.450982226
874,4912002,2838 JENNINGS ST,11/16/2007,CONSTRUCTION,Bayview,37.7223463337,-122.393185768
875,5258026,1415 HUDSON AV,03/13/2015,CONSTRUCTION,Bayview,37.7378931444,-122.385012469
876,5991003,306 UNIVERSITY ST,08/06/2014,BP REINSTATED,Excelsior,37.7262140066,-122.414206323
877,4937014,1060 GILMAN AV,11/04/2010,BP REINSTATED,Bayview,37.719108699,-122.389149683
878,2117001,1901 17TH AV,04/17/2015,BP ISSUED,Inner Sunset,37.7523053796,-122.474509811
879,4964019,870 INGERSON AV,05/23/2014,BP REINSTATED,Bayview,37.7179305658,-122.390405646
880,6019002,326 NAPLES ST,04/20/2015,BP ISSUED,Excelsior,37.7236287362,-122.429446445
881,5327019,1752 QUESADA AV,06/04/2015,CONSTRUCTION,Bayview,37.7341161528,-122.392280644
882,6086012C,203 RUSSIA AV,03/25/2015,BP ISSUED,Excelsior,37.7209188605,-122.435323698
883,1879001A,1507 33RD AV,05/15/2015,BP ISSUED,Outer Sunset,37.7589449501,-122.492137053
884,4003006,238 MISSOURI ST,11/05/2014,BP ISSUED,Potrero Hill,37.7633660835,-122.396915029
885,6508035,3933 24TH ST,04/10/2012,BP APPROVED,Noe Valley,37.7512690354,-122.430431467
886,6659006,1749 DOLORES ST,06/04/2015,CONSTRUCTION,Bernal Heights,37.7416204681,-122.423846306
887,859013,352 WALLER ST,03/06/2015,CONSTRUCTION,Western Addition,37.7715552907,-122.429516404
888,2688072,89 BELGRAVE AV,04/06/2015,BP ISSUED,Haight Ashbury,37.7593611936,-122.449717251
889,1878002C,1563 32ND AV,05/15/2015,BP ISSUED,Outer Sunset,37.7580366122,-122.491039452
890,2416002H,422 VICENTE ST,04/24/2014,CONSTRUCTION,Parkside,37.739741051,-122.471586802
891,4084018,2495 HARRISON ST,02/26/2015,BP ISSUED,Mission,37.7575693108,-122.412054828
892,2987A036,1325 PORTOLA DR,12/20/2013,CONSTRUCTION,West of Twin Peaks,37.7396378536,-122.464624996
893,6984011,135 MIRAMAR AV,06/05/2015,BP ISSUED,Ocean View,37.720692241,-122.458494351
894,5577011,191 BREWSTER ST,09/04/2014,BP ISSUED,Bernal Heights,37.7436113739,-122.407173663
895,3732087,457 TEHAMA ST,08/05/2013,BP REINSTATED,South of Market,37.7799443066,-122.405538538
896,1806019A,1474 48TH AV,03/12/2015,BP ISSUED,Outer Sunset,37.7589664415,-122.50764242
897,300015,967 SUTTER ST,11/21/2014,CONSTRUCTION,Downtown/Civic Center,37.7879685912,-122.416228494
898,1423015,261 10TH AV,07/15/2014,BP ISSUED,Inner Richmond,37.7834683297,-122.469082954
899,515031,2251 GREENWICH ST,02/12/2015,BP ISSUED,Marina,37.7985818492,-122.43672029
900,1569002,609 26TH AV,05/27/2014,CONSTRUCTION,Outer Richmond,37.7778694369,-122.485925175
901,5617014,166 WINFIELD ST,03/04/2015,CONSTRUCTION,Bernal Heights,37.7426069231,-122.418730981
902,2861011,160 SAN MARCOS AV,01/23/2014,CONSTRUCTION,West of Twin Peaks,37.7470932072,-122.465115391
903,4275001A,1318 HAMPSHIRE ST,01/12/2015,BP APPROVED,Mission,37.7509966058,-122.407343782
904,2630017,1167 STANYAN ST,09/25/2013,BP ISSUED,Inner Sunset,37.7629443083,-122.452568164
905,5426030,2077 BANCROFT AV,06/04/2015,BP ISSUED,Bayview,37.730465206,-122.401916247
906,6575001,3615 CESAR CHAVEZ ST,07/11/2013,PL APPROVED,Bernal Heights,37.7471651029,-122.420881785
907,3532091,245 VALENCIA ST,12/09/2014,CONSTRUCTION,Mission,37.7687773739,-122.42180637
908,1732043,1759 LINCOLN WY,06/20/2013,PL APPROVED,Inner Sunset,37.7651985868,-122.47688907
909,3784015,603 7th Street,11/18/2013,BP ISSUED,South of Market,37.7730294796,-122.402848355
910,3774026,270 BRANNAN ST,06/02/2015,CONSTRUCTION,South of Market,37.7829602894,-122.391554777
911,3785003,690 05TH ST,06/17/2009,PL APPROVED,South of Market,37.7753480052,-122.397675697
912,1550045,522 08TH AV,03/12/2015,BP ISSUED,Inner Richmond,37.7785299779,-122.465923625
913,2476034,2670 21ST AV,05/07/2015,BP ISSUED,Parkside,37.7379352278,-122.477154849
914,3631017,987 DOLORES ST,05/14/2014,BP REINSTATED,Mission,37.7536707576,-122.424917301
915,6553024,1267 NOE ST,05/13/2015,BP ISSUED,Noe Valley,37.7487370866,-122.431327426
916,6080027,379 LISBON ST,02/27/2015,BP ISSUED,Excelsior,37.7222153107,-122.433100479
917,6959030,1927 ALEMANY BL,12/31/2013,CONSTRUCTION,Outer Mission,37.7209489747,-122.438680776
918,2652010,132 CORBETT AV,07/10/2014,PL APPROVED,Castro/Upper Market,37.7618608048,-122.441274667
919,2362019,2332 TARAVAL ST,05/21/2015,BP ISSUED,Parkside,37.7426087266,-122.491352392
920,130020,778 VALLEJO ST,04/06/2015,CONSTRUCTION,Russian Hill,37.7986075262,-122.410102326
921,3749184,75 LANSING ST,03/12/2014,PL APPROVED,South of Market,37.7857262336,-122.394180095
922,5943050,262 MADISON ST,01/08/2014,CONSTRUCTION,Excelsior,37.7257224458,-122.422803574
923,4271008,1340 ALABAMA ST,03/12/2014,CONSTRUCTION,Mission,37.7502255362,-122.411005412
924,2451002,2695 45TH AV,04/21/2015,BP ISSUED,Parkside,37.7363622411,-122.503452354
925,2691019,72 CASELLI AV,05/15/2015,CONSTRUCTION,Castro/Upper Market,37.7599367448,-122.440977552
926,2993088,287 CRESTA VISTA DR,04/21/2015,CONSTRUCTION,West of Twin Peaks,37.7356934916,-122.45353081
927,1227003,413 SHRADER ST,11/12/2014,BP ISSUED,Haight Ashbury,37.770738813,-122.452461149
928,1043009,53 MANZANITA AV,08/21/2014,BP ISSUED,Presidio Heights,37.7850034936,-122.451355046
929,2129001C,2014 10TH AV,04/07/2015,BP APPROVED,West of Twin Peaks,37.7506008117,-122.466180664
930,819011,564 FELL ST,05/07/2015,CONSTRUCTION,Western Addition,37.7755972585,-122.427127741
931,4145012,2356 BRYANT ST,10/31/2014,BP ISSUED,Mission,37.7566452757,-122.409815593
932,4274001,1302 YORK ST,09/25/2014,BP ISSUED,Mission,37.7511146773,-122.408249969
933,1564013,571 21ST AV,05/29/2013,BP FILED,Outer Richmond,37.7771025622,-122.480546031
934,6466015,167 ALLISON ST,12/22/2014,BP ISSUED,Crocker Amazon,37.7129197804,-122.441488089
935,6656029,1877 CHURCH ST,04/30/2012,BP ISSUED,Glen Park,37.7403321524,-122.426373935
936,1405045,322 29TH AV,05/10/2013,CONSTRUCTION,Outer Richmond,37.7832193793,-122.488926834
937,7295018,477 EUCALYPTUS DR,06/04/2015,BP ISSUED,Lakeshore,37.7305033792,-122.478386138
938,6774012,2 FLOOD AV,02/02/2015,CONSTRUCTION,Outer Mission,37.7301700011,-122.440655588
939,5972040,262 UNIVERSITY ST,02/03/2015,CONSTRUCTION,Excelsior,37.72667371,-122.414394395
940,5597A001,928 TOLAND ST,05/13/2015,CONSTRUCTION,Bayview,37.7416237004,-122.401547207
941,3510058,915 - 935 MINNA ST,03/25/2015,PL FILED,South of Market,37.7742867326,-122.415799574
942,5949008,54 NAPLES ST,03/26/2015,BP ISSUED,Excelsior,37.7279420236,-122.426186
943,1183010,601 BRODERICK ST,01/08/2013,PL APPROVED,Haight Ashbury,37.7758374088,-122.439974539
944,7107023,188 BROAD ST,07/01/2013,CONSTRUCTION,Ocean View,37.7134244541,-122.458623063
945,4172006,2538 03RD ST,05/18/2015,CONSTRUCTION,Potrero Hill,37.7573913569,-122.388563413
946,6540021,4372 25TH ST,08/04/2014,CONSTRUCTION,Noe Valley,37.7497087422,-122.43773949
947,665002,1551  FRANKLIN ST,06/30/2014,BP ISSUED,Western Addition,37.7889652649,-122.423984829
948,4149019,2938 23RD ST,06/02/2015,CONSTRUCTION,Mission,37.7544855569,-122.41090476
949,4212011,1115 POTRERO AV,03/05/2012,BP APPROVED,Mission,37.7540362484,-122.406082575
950,4004034,1451 MARIPOSA ST,06/11/2014,BP ISSUED,Potrero Hill,37.7635671478,-122.398124959
951,2829010,4376 24TH ST,02/04/2015,BP ISSUED,Noe Valley,37.7511704114,-122.440146125
952,7091025,200 BRIGHT ST,07/31/2014,PL APPROVED,Ocean View,37.7145490676,-122.463355651
953,6090004,524 VIENNA ST,10/17/2013,CONSTRUCTION,Excelsior,37.7201407647,-122.431000294
954,851012,226 - 228 HAIGHT ST,09/23/2011,PL APPROVED,Western Addition,37.772858915,-122.426785402
955,2381027A,2474 45TH AV,04/06/2015,BP ISSUED,Parkside,37.7404600102,-122.503124991
956,5963042,35 LA GRANDE AV,06/07/2013,BP ISSUED,Excelsior,37.7246538349,-122.423735435
957,1729012,1259 21ST AV,05/12/2015,CONSTRUCTION,Outer Sunset,37.7642170351,-122.479647987
958,1542005,431 02ND AV,05/20/2013,BP FILED,Inner Richmond,37.7805135385,-122.460276626
959,2360006,2355 31ST AV,01/27/2015,BP ISSUED,Parkside,37.7432996719,-122.488934416
960,6604011,538 28TH ST,05/01/2015,CONSTRUCTION,Noe Valley,37.7450901715,-122.434297375
961,3576076,80 SYCAMORE ST,08/02/2012,BP FILED,Mission,37.7627991082,-122.421058219
962,829023,526 HICKORY ST,01/21/2015,CONSTRUCTION,Western Addition,37.7748448146,-122.428662585
963,4146019,2830 22ND ST,06/30/2014,BP ISSUED,Mission,37.7561367262,-122.410977315
964,74001,701 LOMBARD ST,02/03/2014,CONSTRUCTION,North Beach,37.8026191334,-122.413210057
965,1068014,30 BLAKE ST,10/08/2014,BP APPROVED,Presidio Heights,37.7832454571,-122.451059733
966,162026,1011 KEARNY ST,06/05/2015,CONSTRUCTION,Chinatown,37.7973719643,-122.405600742
967,539032,2231 UNION ST,10/08/2009,PL APPROVED,Marina,37.7967261878,-122.436087047
968,5087003,SCHLAGE LOCK,07/22/2014,PL APPROVED,Visitacion Valley,37.7116529675,-122.402222462
969,5991004,308 UNIVERSITY ST,08/06/2014,BP REINSTATED,Excelsior,37.7261487657,-122.414179389
970,6360001,60 BURR AV,10/27/2011,BP ISSUED,Visitacion Valley,37.7093935865,-122.414208242
971,3735063,222 02ND ST,06/02/2015,CONSTRUCTION,Financial District,37.7863198113,-122.398235075
972,3615026,2525 MISSION ST,08/26/2009,BP ISSUED,Mission,37.7565865106,-122.418501165
973,694005,1100 VAN NESS AVE,04/07/2015,BP APPROVED,Downtown/Civic Center,37.7860929193,-122.420237051
974,5262004,2095 Jerrold Ave,03/26/2010,PL APPROVED,Bayview,37.7420910824,-122.39461561
975,3722367,151 03RD ST,06/05/2015,CONSTRUCTION,Financial District,37.7859229805,-122.400749566
976,2375019,3606 - 3608 TARAVAL ST,02/25/2015,PL FILED,Parkside,37.7420112987,-122.504901911
977,3559008,2238 - 2254 MARKET ST,02/26/2015,PL FILED,Castro/Upper Market,37.7645393107,-122.431214642
978,5306025,4616 03RD ST,10/14/2014,BP ISSUED,Bayview,37.7362024195,-122.390593538
979,3794015,101 TOWNSEND ST,10/06/2014,BP FILED,South of Market,37.7802256792,-122.390465534
980,1368049,4614 CALIFORNIA ST,01/23/2007,BP FILED,Inner Richmond,37.7849391688,-122.467201438
981,269028,350 BUSH ST,05/14/2015,CONSTRUCTION,Financial District,37.7913114847,-122.40330374
982,3788042,333 BRANNAN ST (aka 329 BRANNAN ST),08/15/2013,PL APPROVED,South of Market,37.780918014,-122.392416985
983,3763017,482 BRYANT ST,05/22/2015,CONSTRUCTION,South of Market,37.7818082786,-122.395622483
984,5323015A,1425 MENDELL ST,05/11/2015,BP ISSUED,Bayview,37.7342701102,-122.390344608
985,3720001,425 MISSION ST,02/03/2015,CONSTRUCTION,Financial District,37.7896913805,-122.396595638
986,4352007,1301 CESAR CHAVEZ ST,01/29/2015,BP ISSUED,Bayview,37.7492558732,-122.390975379
987,238002,300 CALIFORNIA ST,12/05/2013,PL APPROVED,Financial District,37.7934465428,-122.400343674
988,1051034,2320 SUTTER ST,05/26/2015,CONSTRUCTION,Western Addition,37.7856336649,-122.438681348
989,5253001,1601 GALVEZ AV,12/06/2012,BP ISSUED,Bayview,37.7405855262,-122.388086473
990,6044007,450 SOMERSET ST,04/20/2015,BP ISSUED,Excelsior,37.7256888498,-122.407666843
991,3786018,85 BLUXOME ST,06/04/2015,CONSTRUCTION,South of Market,37.776104956,-122.397302321
992,3717019,120 HOWARD ST,06/13/2012,CONSTRUCTION,Financial District,37.7913518413,-122.393110431
993,258033,500 PINE ST,05/07/2015,CONSTRUCTION,Chinatown,37.7919153338,-122.404602637
994,5991001,300-308 UNIVERSITY ST,08/28/2014,PL FILED,Excelsior,37.7263444891,-122.41426019
995,192014,835-845 Jackson St,07/12/2012,PL APPROVED,Chinatown,37.7952136136,-122.409609662
996,3517035,1401 HOWARD STREET,01/27/2015,BP ISSUED,South of Market,37.7735620051,-122.414298822
997,7303001,3711 19th Ave,05/25/2011,PL APPROVED,Lakeshore,37.7212200819,-122.483610339
998,676009,1834 SUTTER ST,10/16/2014,PL APPROVED,Western Addition,37.7867022354,-122.430674991
999,8720016,1455 03RD ST,04/23/2010,BP ISSUED,South of Market,37.7715877041,-122.388536152
1000,3799001,601 TOWNSEND ST,05/10/2012,PL APPROVED,South of Market,37.7711248895,-122.401663251
1001,3710017,350 MISSION ST,05/13/2015,CONSTRUCTION,Financial District,37.7908854773,-122.396685875
1002,5419005,1636 ARMSTRONG AV,04/08/2010,CONSTRUCTION,Bayview,37.7268937358,-122.392883136
1003,3723115,770 FOLSOM ST,04/22/2015,BP ISSUED,Financial District,37.7849378477,-122.40206766
1004,327011,72 ELLIS ST,03/25/2010,PL APPROVED,Downtown/Civic Center,37.7857990446,-122.407442272
1005,4886008,Hunters Point Expy,08/03/2010,PL APPROVED,Bayview,37.7146878859,-122.380302389
1006,8709004,1600 OWENS ST,05/11/2015,CONSTRUCTION,South of Market,37.7687575633,-122.395057507
1007,8719002,1351 03RD ST,01/14/2015,CONSTRUCTION,South of Market,37.774715583,-122.388787438
1008,3788039,345 BRANNAN ST,06/03/2015,CONSTRUCTION,South of Market,37.7805436044,-122.392478381
1009,3704071,949 Market Street,06/05/2015,CONSTRUCTION,South of Market,37.7827027187,-122.408998101
1010,3778047,610-620 Brannan Street,06/14/2014,PL APPROVED,South of Market,37.7766269343,-122.399555505
1011,2979A021A,99 WEST PORTAL AV,03/25/2013,CONSTRUCTION,West of Twin Peaks,37.7397276784,-122.46663096
1012,2094005,3223 ORTEGA ST,05/20/2011,CONSTRUCTION,Outer Sunset,37.749680044,-122.497311326
1013,6439019,59 WINDING WY,09/02/2014,CONSTRUCTION,Crocker Amazon,37.7104448828,-122.432408017
1014,1877034,1566 32ND AV,05/05/2015,BP APPROVED,Outer Sunset,37.7579912081,-122.490378574
1015,1439021,4334 GEARY BL,10/03/2013,BP APPROVED,Inner Richmond,37.7812952427,-122.46601635
1016,1939001,Treasure Island,03/15/2011,PL APPROVED,Treasure Island/YBI,37.824283772,-122.370951496
1017,6763001,95 NORDHOFF ST,10/10/2014,PL FILED,Outer Mission,37.7342543998,-122.441332702
1018,201012,8 Washington Street,08/30/2012,PL APPROVED,Financial District,37.7969137273,-122.396650676
1019,250001,1401 CALIFORNIA ST,12/15/2011,PL APPROVED,Nob Hill,37.7906161999,-122.417820842
0,3725093,925 MISSION ST,05/15/2015,PL FILED,South of Market,37.7821536544,-122.406601109
1,3746003,201 FOLSOM ST,07/23/2015,CONSTRUCTION,South of Market,37.7886820165,-122.391851353
2,3737012,245 01ST ST,12/23/2014,BP FILED,Financial District,37.787900112,-122.394594038
3,3911001,1 HENRY ADAMS ST,04/21/2015,CONSTRUCTION,South of Market,37.7692014322,-122.403472985
4,3506007,1500-1580 MISSION ST,12/18/2014,PL FILED,South of Market,37.7738221883,-122.418417024
5,3736120,500 FOLSOM ST,03/11/2015,BP FILED,Financial District,37.7872035554,-122.39510677
6,3833001,1000 16TH ST,09/07/2012,CONSTRUCTION,South of Market,37.7671083406,-122.396595168
7,4105009,800 INDIANA STREET,10/10/2013,PL FILED,Potrero Hill,37.7591964033,-122.391729047
8,3747320,399 FREMONT ST,07/20/2015,CONSTRUCTION,South of Market,37.7873224333,-122.392223707
9,8704004,360 BERRY ST,07/17/2015,CONSTRUCTION,South of Market,37.7730344812,-122.397263331
10,0857001,55 Laguna Street,07/30/2015,CONSTRUCTION,Western Addition,37.7723498556,-122.426278644
11,0814001,150 VAN NESS AVE,04/23/2014,PL FILED,Downtown/Civic Center,37.7773006581,-122.418295445
12,3756003,350 08TH ST,07/30/2015,CONSTRUCTION,South of Market,37.7736941666,-122.40965844
13,3736078A,57 TEHAMA ST,07/20/2015,BP REINSTATED,Financial District,37.7873947486,-122.396093313
14,3736074,41 TEHAMA ST,11/14/2013,PL APPROVED,Financial District,37.7869780545,-122.396622398
15,3748006,340 FREMONT ST,08/03/2012,BP FILED,South of Market,37.7871196058,-122.393231214
16,3553052,1979 MISSION ST,12/17/2013,BP FILED,Mission,37.7655813755,-122.419123068
17,3749059,45 LANSING ST,07/14/2015,CONSTRUCTION,South of Market,37.7858734308,-122.393748741
18,0342001,950 MARKET ST,11/19/2013,PL FILED,Downtown/Civic Center,37.7831754339,-122.409568316
19,3701021,1270 MISSION ST,05/28/2015,PL FILED,South of Market,37.7768070788,-122.414522788
20,0350003,1066 MARKET ST,06/18/2014,PL FILED,Downtown/Civic Center,37.7817990077,-122.41174159
21,3708006,50 01ST ST,06/04/2014,PL FILED,Financial District,37.7899046877,-122.398320801
22,3954016,1301 16TH STREET,09/16/2013,PL FILED,Potrero Hill,37.7658451446,-122.400239355
23,4022001,2070 BRYANT ST,06/12/2014,PL FILED,Mission,37.761499537,-122.410581329
24,8710004,718 LONG BRIDGE ST,07/15/2015,CONSTRUCTION,South of Market,37.7714244696,-122.394362815
25,0647007,1634-1690 PINE ST,07/30/2015,CONSTRUCTION,Western Addition,37.7895929753,-122.422950809
26,0794028,555 FULTON ST,07/14/2015,CONSTRUCTION,Western Addition,37.7781680419,-122.425752279
27,4172022,1201-1225 TENNESSEE STREET,07/27/2015,CONSTRUCTION,Potrero Hill,37.7559279741,-122.388602973
28,4167011,1395 22nd St,01/13/2014,PL FILED,Potrero Hill,37.7562034233,-122.393593669
29,0813007,1390 MARKET ST,05/28/2009,PL APPROVED,Downtown/Civic Center,37.7772236125,-122.417361361
30,3514043,1601 MISSION ST,02/11/2015,PL FILED,South of Market,37.7720407322,-122.418763248
31,3703059,1095 MARKET ST,09/11/2014,BP FILED,South of Market,37.7803286884,-122.412013611
32,0350002,1028 MARKET ST,04/29/2014,PL FILED,Downtown/Civic Center,37.7818834819,-122.411323334
33,3706093,706 MISSION ST,07/31/2013,PL APPROVED,Financial District,37.7862060968,-122.40253249
34,0831023,PARCEL P - MARKET OCTAVIA,12/31/2014,CONSTRUCTION,Western Addition,37.7749621109,-122.425119564
35,0836002,1540 MARKET ST,02/27/2009,PL FILED,Downtown/Civic Center,37.7752149608,-122.41960726
36,0671006,1450 FRANKLIN ST,04/14/2015,CONSTRUCTION,Western Addition,37.7880562921,-122.423253073
37,4886008,Hunters Point Expy,08/03/2010,PL APPROVED,Bayview,37.7146878859,-122.380302389
38,0855016,1700 MARKET ST,06/22/2015,PL APPROVED,Western Addition,37.7729534153,-122.422447142
39,7303001,3711 19th Ave,05/25/2011,PL APPROVED,Lakeshore,37.7212200819,-122.483610339
40,5087003,SCHLAGE LOCK,07/22/2014,PL APPROVED,Visitacion Valley,37.7116529675,-122.402222462
41,9900048,PIER 48,04/23/2013,PL FILED,South of Market,37.7757037635,-122.386135109
42,4110001,PIER 70,02/10/2015,PL FILED,Potrero Hill,37.7597541361,-122.386993514
43,4167004,HOPE SF Potrero,06/30/2010,PL FILED,Potrero Hill,37.7558204802,-122.395144145
44,6310001,HOPE SF Sunnydale,04/28/2010,PL FILED,Visitacion Valley,37.7130874301,-122.418990152
45,3953002,88 ARKANSAS ST,03/25/2015,PL FILED,Potrero Hill,37.7653561316,-122.399047724
46,7036012,345 LOUISBURG ST,03/21/2007,BP FILED,Ocean View,37.7187098617,-122.450914094
47,2636025,SAN FRANCISCO OVERLOOK,03/07/2014,PL APPROVED,Inner Sunset,37.7589409884,-122.460781674
48,3741031,75 HOWARD ST,01/13/2012,PL FILED,Financial District,37.7915578785,-122.391671499
49,3730015,1140 FOLSOM STREET,10/16/2013,PL FILED,South of Market,37.7762383802,-122.408952216
50,3728019,1298 HOWARD STREET,03/19/2014,PL FILED,South of Market,37.7756285786,-122.412778676
51,5431A001,5800 03RD ST,07/31/2015,CONSTRUCTION,Bayview,37.7251731211,-122.395520043
52,3510001,1415 MISSION ST,07/09/2015,CONSTRUCTION,South of Market,37.7749076317,-122.415919822
53,4041009,630 INDIANA ST,12/24/2014,BP ISSUED,Potrero Hill,37.7621478295,-122.391861643
54,3747012,325 FREMONT ST,07/17/2014,PL APPROVED,South of Market,37.7877714372,-122.392946601
55,3639006,2675 FOLSOM ST,04/30/2015,PL FILED,Mission,37.7545945828,-122.413811585
56,6250030,81 LELAND AV,06/29/2015,BP FILED,Visitacion Valley,37.7116224544,-122.40546195
57,3753148,377 06TH ST,08/29/2014,PL APPROVED,South of Market,37.7776640872,-122.404157099
58,5524045,3301 FOLSOM ST,03/06/2008,BP FILED,Bernal Heights,37.7450399146,-122.413025012
59,3753106,923 FOLSOM STREET,05/12/2015,BP ISSUED,South of Market,37.7796093041,-122.403380781
60,3767305,429 BEALE ST,05/14/2009,PL APPROVED,South of Market,37.7872476356,-122.390395593
61,0831024,PARCEL O,03/25/2015,PL FILED,Western Addition,37.7753559271,-122.425374345
62,4060001,888 TENNESSEE ST,10/16/2013,PL APPROVED,Potrero Hill,37.7607662646,-122.389984667
63,0340002,19-25 MASON ST & 2-16 TURK ST,03/04/2014,PL APPROVED,Downtown/Civic Center,37.7837500979,-122.409494227
64,0836007,1554 MARKET ST,11/22/2013,BP FILED,Downtown/Civic Center,37.7749804242,-122.420196107
65,0836006,1550 MARKET ST,06/19/2013,PL FILED,Downtown/Civic Center,37.7748892682,-122.420080838
66,4045003,2171 THIRD ST,06/21/2013,BP FILED,Potrero Hill,37.7623405114,-122.388255218
67,4591C099,50 JERROLD AV,07/22/2015,CONSTRUCTION,Bayview,37.7276515675,-122.369239611
68,3730004,230 07TH ST,07/30/2014,PL FILED,South of Market,37.7772953003,-122.409123493
69,0667016,1545 PINE ST,12/03/2013,BP FILED,Nob Hill,37.7892721056,-122.421211229
70,0855010,1740 MARKET ST,01/29/2015,PL FILED,Western Addition,37.7725441778,-122.423102028
71,0757028,1100 GOLDEN GATE AV,07/17/2015,CONSTRUCTION,Western Addition,37.7802585877,-122.429485283
72,3994001C,650 ILLINOIS ST,06/05/2014,PL APPROVED,Potrero Hill,37.7637856036,-122.388374828
73,0744010,950 GOUGH ST,05/11/2015,PL FILED,Downtown/Civic Center,37.7822225671,-122.423765945
74,4102026,645 TEXAS ST,01/27/2015,BP ISSUED,Potrero Hill,37.7579634092,-122.394571813
75,4884025,2600 ARELIOUS WALKER DR,07/29/2015,CONSTRUCTION,Bayview,37.7193826402,-122.384934382
76,3703062,1075 MARKET ST,02/12/2014,PL FILED,South of Market,37.7806442154,-122.411615202
77,3753081,345 06TH ST,05/01/2014,PL APPROVED,South of Market,37.7781649025,-122.404677384
78,3753079,363 06TH ST,10/03/2012,PL APPROVED,South of Market,37.7780487572,-122.404446691
79,3542039,2198 MARKET ST,07/30/2015,CONSTRUCTION,Castro/Upper Market,37.7665267113,-122.4307685
80,0346003A,101 HYDE ST,06/27/2013,BP FILED,Downtown/Civic Center,37.7818037377,-122.415896548
81,3753122,301 06TH ST,07/02/2013,PL APPROVED,South of Market,37.7784419135,-122.405086421
